시설번호,대피시설명,지번주소,도로명주소,대피시설 구분,평시활용 유형,대피시설 면적,대피시설 인원수,개방여부,데이터기준일자,제공기관명,제공기관코드,경도,위도,X좌표,Y좌표
367,한국전력강서양천지사,서울특별시 양천구 신정동 319-1,서울특별시 양천구 목동서로 313 (신정동 한국전력강서지점),공공용,기타,950,1151,Y,2021-05-20,서울특별시 양천구,3140000,126.868758,37.520086,188397.9745,546741.51
368,출입국관리사무소,서울특별시 양천구 신정동 319-2,서울특별시 양천구 목동동로 151 (신정동 서울출입국관리사무소),공공용,기타,984,1192,Y,2021-05-20,서울특별시 양천구,3140000,126.869624,37.519247,188474.4014,546648.2851
369,평광교회,서울특별시 양천구 목동 909-2,서울특별시 양천구 목동서로 13 (목동),공공용,주차장,1272,1541,Y,2021-05-20,서울특별시 양천구,3140000,126.884365,37.538217,189780.1002,548752.0167
370,화성프라자,서울특별시 양천구 목동 909-5,서울특별시 양천구 목동동로 435 (목동),공공용,주차장,489,592,Y,2021-05-20,서울특별시 양천구,3140000,126.884848,37.537386,189822.7103,548659.7334
371,신월프라자,서울특별시 양천구 신월동 128,서울특별시 양천구 곰달래로5길 17 (신월동 신월프라자),공공용,주차장,7200,8727,Y,2021-05-20,서울특별시 양천구,3140000,126.833603,37.53111,185292.3726,547970.0039
372,신월1동주민센터,서울특별시 양천구 신월동 135-18,서울특별시 양천구 곰달래로1길 38 (신월동 신월1동주민센터),공공용,주차장,263,318,Y,2021-05-20,서울특별시 양천구,3140000,126.831527,37.532803,185109.1962,548158.183
373,보성아파트,서울특별시 양천구 신월동 465-5,서울특별시 양천구 오목로13길 33 (신월동 신월보성아파트),공공용,주차장,1207,1463,Y,2021-05-20,서울특별시 양천구,3140000,126.844525,37.525881,186256.7961,547387.9475
374,우당아파트,서울특별시 양천구 신월동 506-1,서울특별시 양천구 오목로 90 (신월동),공공용,주차장,3894,4720,Y,2021-05-20,서울특별시 양천구,3140000,126.847848,37.523044,186550.0057,547072.5954
375,신월4동주민센터,서울특별시 양천구 신월동 425-2,서울특별시 양천구 오목로5길 34 (신월동),공공용,주차장,608,736,Y,2021-05-20,서울특별시 양천구,3140000,126.840078,37.524669,185863.4748,547254.0895
376,금용아파트,서울특별시 양천구 신월동 533-1,서울특별시 양천구 신월로17길 22 (신월동 금용아파트),공공용,주차장,3758,4555,Y,2021-05-20,서울특별시 양천구,3140000,126.842411,37.520564,186068.9405,546798.1375
377,성은교회,서울특별시 양천구 신월동 64-2,서울특별시 양천구 화곡로 100 (신월동),공공용,주차장,565,684,Y,2021-05-20,서울특별시 양천구,3140000,126.833176,37.539378,185256.2584,548887.6682
378,승원빌딩,서울특별시 양천구 신월동 992-3,서울특별시 양천구 지양로 22 (신월동 승원빌딩),공공용,주차장,1124,1362,Y,2021-05-20,서울특별시 양천구,3140000,126.837444,37.518675,185629.4891,546589.2292
379,신월7동주민센터,서울특별시 양천구 신월동 962- 10,서울특별시 양천구 남부순환로70길 16-3 (신월동 신월7동주민센터),공공용,주차장,165,200,Y,2021-05-20,서울특별시 양천구,3140000,126.834731,37.521892,185390.2776,546946.694
380,신월시영아파트,서울특별시 양천구 신월동 987-1,서울특별시 양천구 신월로 99 (신월동 신월시영아파트),공공용,주차장,10241,12413,Y,2021-05-20,서울특별시 양천구,3140000,126.835156,37.518456,185427.2058,546565.2748
381,현대프라자,서울특별시 양천구 신정동 1021-9,서울특별시 양천구 중앙로32길 61 (신정동),공공용,주차장,2545,3084,Y,2021-05-20,서울특별시 양천구,3140000,126.860316,37.520083,187651.6859,546742.2328
382,신월3동주민센터,서울특별시 양천구 신월동 167- 5,서울특별시 양천구 남부순환로54길 5 (신월동),공공용,주차장,200,242,Y,2021-05-20,서울특별시 양천구,3140000,126.829078,37.53363,184892.9214,548250.4048
383,오목교역,서울특별시 양천구 목동 406-30,서울특별시 양천구 오목로 지하 342 (목동 오목교역),공공용,기타,12427,15063,Y,2021-05-20,서울특별시 양천구,3140000,126.875353,37.524451,188981.5999,547225.2043
384,목동역,서울특별시 양천구 목동 926-3,서울특별시 양천구 오목로 지하 245 (목동 목동역),공공용,기타,7405,8975,Y,2021-05-20,서울특별시 양천구,3140000,126.864728,37.526178,188042.6875,547418.1508
385,방송회관,서울특별시 양천구 목동 923-5,서울특별시 양천구 목동동로 233 (목동 한국방송회관),공공용,주차장,14778,17912,Y,2021-05-20,서울특별시 양천구,3140000,126.871381,37.526981,188630.8988,547506.4057
386,한국통신,서울특별시 양천구 목동 924,서울특별시 양천구 목동서로 201 (목동),공공용,주차장,16129,19550,Y,2021-05-20,서울특별시 양천구,3140000,126.871104,37.529428,188606.7859,547778.0692
387,한국전파진흥협회,서울특별시 양천구 목동 124-1,서울특별시 양천구 목동중앙로13나길 3 (목동 한국전파진흥협회),공공용,주차장,1113,1349,Y,2021-05-20,서울특별시 양천구,3140000,126.880614,37.546174,189449.742,549635.6127
388,양천우체국,서울특별시 양천구 목동 905-16,서울특별시 양천구 목동서로 117 (목동 양천우체국),공공용,주차장,4145,5024,Y,2021-05-20,서울특별시 양천구,3140000,126.876203,37.532864,189058.0014,548158.8175
389,양천도서관,서울특별시 양천구 목동 905,서울특별시 양천구 목동서로 113 (목동 양천도서관),공공용,주차장,1024,1241,Y,2021-05-20,서울특별시 양천구,3140000,126.876229,37.533559,189060.401,548236.0042
390,서울에너지공사,서울특별시 양천구 목동 900,서울특별시 양천구 목동서로 20 (목동),공공용,기타,816,989,Y,2021-05-20,서울특별시 양천구,3140000,126.883763,37.540116,189727.191,548962.8482
391,양정중고등학교,서울특별시 양천구 목동 911-2,서울특별시 양천구 안양천로 1039 (목동 양정중학교.양정고등학교),공공용,주차장,1315,1593,Y,2021-05-20,서울특별시 양천구,3140000,126.887734,37.535392,190077.5413,548438.1442
392,이화여대부속목동병원,서울특별시 양천구 목동 911-1,서울특별시 양천구 안양천로 1071 (목동 이화여대목동병원),공공용,기타,9705,11763,Y,2021-05-20,서울특별시 양천구,3140000,126.886746,37.536983,189990.4043,548614.8039
858,경향렉스빌아파트,서울특별시 동작구 상도동 445,서울특별시 동작구 양녕로23길 9,공공용,,10144,12295,Y,2021-05-31,서울특별시 동작구청,3190000,126.941731,37.495325,194847.1986,543986.8041
859,동광교회,서울특별시 동작구 상도동 190-8,서울특별시 동작구 성대로1길 26,공공용,,3233,3918,Y,2021-05-31,서울특별시 동작구청,3190000,126.934909,37.501851,194244.397,544711.604
860,도화 공영주차장,서울특별시 동작구 상도동 244-50,서울특별시 동작구 성대로17길 지하 52,공공용,,2138,2591,Y,2021-05-31,서울특별시 동작구청,3190000,126.935245,37.499808,194274.0042,544484.8047
861,삼익아파트,서울특별시 동작구 상도동 413,서울특별시 동작구 양녕로26나길 8,공공용,,1184,1435,Y,2021-05-31,서울특별시 동작구청,3190000,126.944561,37.497366,195097.6006,544213.204
862,롯데캐슬비엔아파트,서울특별시 동작구 상도동 530-1,서울특별시 동작구 양녕로 170,공공용,,1184,1435,Y,2021-05-31,서울특별시 동작구청,3190000,126.943643,37.497001,195016.3989,544172.8041
863,우성1차아파트,서울특별시 동작구 신대방동 565,서울특별시 동작구 여의대방로 22,공공용,,6088,7379,Y,2021-05-31,서울특별시 동작구청,3190000,126.911642,37.49106,192185.999,543515.6048
864,현대아파트,서울특별시 동작구 신대방동 707,서울특별시 동작구 여의대방로 28,공공용,,4899,5938,Y,2021-05-31,서울특별시 동작구청,3190000,126.911692,37.495273,192190.7975,543983.2043
865,사당삼익그린뷰아파트,서울특별시 동작구 사당동 1150,서울특별시 동작구 남부순환로255길 21,공공용,,6732,8160,Y,2021-05-31,서울특별시 동작구청,3190000,126.968892,37.477376,197248.3962,541993.6042
866,진흥아파트,서울특별시 동작구 사당동 1142,서울특별시 동작구 사당로16아길 43,공공용,,3743,4536,Y,2021-05-31,서울특별시 동작구청,3190000,126.969329,37.480562,197287.2003,542347.2038
867,사당휴먼시아아파트,서울특별시 동작구 사당동 1154,서울특별시 동작구 사당로16길 96,공공용,,13395,16236,Y,2021-05-31,서울특별시 동작구청,3190000,126.970139,37.479495,197358.7971,542228.8046
868,사당제5동주민센터,서울특별시 동작구 사당동 228-11,서울특별시 동작구 사당로2가길 219,공공용,,323,391,Y,2021-05-31,서울특별시 동작구청,3190000,126.96698,37.485661,197079.5982,542913.2043
869,사당자이아파트,서울특별시 동작구 사당동 1139,서울특별시 동작구 사당로2가길 102,공공용,,13777,16699,Y,2021-05-31,서울특별시 동작구청,3190000,126.963417,37.488373,196764.67,543214.3143
870,남해오네뜨아파트,서울특별시 동작구 사당동 1143,서울특별시 동작구 사당로2가길 173,공공용,,4944,5992,Y,2021-05-31,서울특별시 동작구청,3190000,126.965527,37.487012,196951.1994,543063.2046
871,삼호그린아파트,서울특별시 동작구 사당동 1138,서울특별시 동작구 사당로2가길 188,공공용,,7647,9269,Y,2021-05-31,서울특별시 동작구청,3190000,126.965523,37.486443,196950.796,543000.0044
872,장은해그린아파트,서울특별시 동작구 사당동 1145,서울특별시 동작구 사당로2길 40,공공용,,2983,3615,Y,2021-05-31,서울특별시 동작구청,3190000,126.963413,37.491917,196764.403,543607.6046
873,상도역,서울특별시 동작구 상도1동 702-1,서울특별시 동작구 상도로 지하 272,공공용,,9240,11200,Y,2021-05-31,서울특별시 동작구청,3190000,126.947701,37.503209,195375.6001,544861.6046
874,숭실대학교한국기독교박물관,서울특별시 동작구 상도동 511,서울특별시 동작구 상도로 369,공공용,,5300,6424,Y,2021-05-31,서울특별시 동작구청,3190000,126.95516,37.49643,196034.7965,544108.8043
875,숭실대입구역,서울특별시 동작구 상도동 514,서울특별시 동작구 상도로 지하 378,공공용,,9355,11339,Y,2021-05-31,서울특별시 동작구청,3190000,126.954061,37.495813,195937.5966,544040.4043
876,힐스테이트 상도 센트럴파크,서울특별시 동작구 상도동 531,서울특별시 동작구 상도로 346-1,공공용,,44696,54176,Y,2021-05-31,서울특별시 동작구청,3190000,126.951667,37.49679,195725.99,544148.9543
877,힐스테이트 상도 프레스티지,서울특별시 동작구 상도동 533,서울특별시 동작구 상도로 346-2,공공용,,39551,47940,Y,2021-05-31,서울특별시 동작구청,3190000,126.948272,37.494751,195425.5995,543922.804
878,삼성래미안3차아파트,서울특별시 동작구 상도동 431,서울특별시 동작구 상도로53길 8,공공용,,1650,2000,Y,2021-05-31,서울특별시 동작구청,3190000,126.954053,37.500862,195937.1981,544600.8047
879,삼호아파트 지하주차장,서울특별시 동작구 상도동 408,서울특별시 동작구 상도로 407,공공용,,498,603,Y,2021-05-31,서울특별시 동작구청,3190000,126.957771,37.493919,196265.5967,543830.0048
880,건영아파트,서울특별시 동작구 상도동 414,서울특별시 동작구 만양로 26,공공용,,10801,13092,Y,2021-05-31,서울특별시 동작구청,3190000,126.949543,37.507632,195538.7979,545352.4041
881,장승배기역,서울특별시 동작구 상도동 26-20,서울특별시 동작구 상도로 지하 188,공공용,,9100,11030,Y,2021-05-31,서울특별시 동작구청,3190000,126.938747,37.504665,194584.0041,545023.604
882,청화병원,서울특별시 동작구 노량진동 311-8,서울특별시 동작구 장승배기로 108,공공용,,583,706,Y,2021-05-31,서울특별시 동작구청,3190000,126.940242,37.507141,194716.4019,545298.4042
883,대방동주민센터,서울특별시 동작구 대방동 350-8,서울특별시 동작구 여의대방로44길 20,공공용,,231,280,Y,2021-05-31,서울특별시 동작구청,3190000,126.926325,37.50815,193485.9984,545411.2039
884,유한양행,서울특별시 동작구 대방동 49-6,서울특별시 동작구 노량진로 74,공공용,,17266,20928,Y,2021-05-31,서울특별시 동작구청,3190000,126.934027,37.51272,194167.2671,545917.9603
885,성원아파트,서울특별시 동작구 대방동 500,서울특별시 동작구 여의대방로44길 9,공공용,,2069,2507,Y,2021-05-31,서울특별시 동작구청,3190000,126.925917,37.509732,193450.0011,545586.8041
886,보라매코오롱하늘채아파트,서울특별시 동작구 대방동 509,서울특별시 동작구 여의대방로24다길 40,공공용,,5616,6807,Y,2021-05-31,서울특별시 동작구청,3190000,126.922879,37.498514,193180.3968,544342.0038
887,솔표빌딩,서울특별시 동작구 대방동 339-1,서울특별시 동작구 노량진로 26,공공용,,8727,10578,Y,2021-05-31,서울특별시 동작구청,3190000,126.928927,37.512952,193716.3971,545944.0045
888,사당1동주민센터,서울특별시 동작구 사당동 1004-52,서울특별시 동작구 동작대로17길 28,공공용,,591,716,Y,2021-05-31,서울특별시 동작구청,3190000,126.978771,37.483072,198122.4014,542625.6046
889,한국엔지니어링진흥협회,서울특별시 동작구 사당동 1049-1,서울특별시 동작구 남부순환로 2017,공공용,,803,973,Y,2021-05-31,서울특별시 동작구청,3190000,126.97279,37.476202,197593.1979,541863.2047
890,사당역,서울특별시 동작구 사당동 588-44,서울특별시 동작구 동작대로 지하 3,공공용,,28490,34533,Y,2021-05-31,서울특별시 동작구청,3190000,126.981595,37.476863,198372.0011,541936.4048
891,쌍립빌딩,서울특별시 동작구 사당동 1008-22,서울특별시 동작구 동작대로 59,공공용,,12226,14819,Y,2021-05-31,서울특별시 동작구청,3190000,126.981485,37.482001,198362.4011,542506.5943
892,삼성아파트,서울특별시 동작구 사당동 1037-9,서울특별시 동작구 사당로26길 130-6,공공용,,5270,6387,Y,2021-05-31,서울특별시 동작구청,3190000,126.977647,37.478034,198022.8029,542066.4047
893,르메이에르아파트,서울특별시 동작구 사당동 1141,서울특별시 동작구 사당로20길 119,공공용,,4824,5847,Y,2021-05-31,서울특별시 동작구청,3190000,126.973617,37.478433,197666.4007,542110.8039
894,동작역 4호선,서울특별시 동작구 동작동 327-1,서울특별시 동작구 현충로 257,공공용,,1031,1249,Y,2021-05-31,서울특별시 동작구청,3190000,126.980267,37.50287,198255.2028,544822.8047
895,사당신동아아파트5단지,서울특별시 동작구 사당동 1137-1,서울특별시 동작구 동작대로29길 118,공공용,,10024,12150,Y,2021-05-31,서울특별시 동작구청,3190000,126.97715,37.491041,197979.2018,543510.0043
896,사당동삼성아파트,서울특별시 동작구 사당동 1140,서울특별시 동작구 동작대로35아길 14,공공용,,2174,2635,Y,2021-05-31,서울특별시 동작구청,3190000,126.979958,37.493103,198227.5966,543738.8038
897,이수역 7호선,서울특별시 동작구 사당동 144-4,서울특별시 동작구 사당로 지하 310,공공용,,18757,22735,Y,2021-05-31,서울특별시 동작구청,3190000,126.981023,37.485015,198321.5974,542841.2038
898,사당2동주민센터,서울특별시 동작구 사당동 105-12,서울특별시 동작구 동작대로29길 52,공공용,,231,280,Y,2021-05-31,서울특별시 동작구청,3190000,126.979253,37.488713,198165.1966,543251.6038
899,사당극동아파트,서울특별시 동작구 사당동 105,서울특별시 동작구 동작대로29길 119,공공용,,10479,12701,Y,2021-05-31,서울특별시 동작구청,3190000,126.976055,37.490889,197882.4043,543493.2039
900,사당우성아파트2단지,서울특별시 동작구 사당동 105,서울특별시 동작구 동작대로29길 91,공공용,,6497,7875,Y,2021-05-31,서울특별시 동작구청,3190000,126.976296,37.48802,197903.6019,543174.8039
901,총신대역 4호선,서울특별시 동작구 사당동 736-1,서울특별시 동작구 동작대로 지하 117,공공용,,2640,3200,Y,2021-05-31,서울특별시 동작구청,3190000,126.982198,37.487553,198425.5978,543122.8047
902,동작역 9호선,서울특별시 동작구 동작동 326,서울특별시 동작구 현충로 지하 220,공공용,,15955,19339,Y,2021-05-31,서울특별시 동작구청,3190000,126.977938,37.503067,198049.2023,544844.8048
903,대림아파트,서울특별시 동작구 사당동 169-8,서울특별시 동작구 사당로17길 52,공공용,,360,436,Y,2021-05-31,서울특별시 동작구청,3190000,126.973148,37.487429,197625.2019,543109.2044
904,현대아파트,서울특별시 동작구 사당동 169-32,서울특별시 동작구 사당로13길 86,공공용,,963,1167,Y,2021-05-31,서울특별시 동작구청,3190000,126.970502,37.487612,197391.2042,543129.6039
905,사당3동주민센터,서울특별시 동작구 사당동 169-12,서울특별시 동작구 사당로17길 86,공공용,,198,240,Y,2021-05-31,서울특별시 동작구청,3190000,126.97204,37.486686,197527.2033,543026.8041
906,경남아너스빌,서울특별시 동작구 사당동 1134,서울특별시 동작구 사당로9가길 82,공공용,,7550,9151,Y,2021-05-31,서울특별시 동작구청,3190000,126.967132,37.488281,197093.196,543204.0038
907,사당롯데캐슬아파트,서울특별시 동작구 사당동 1149,서울특별시 동작구 사당로27길 181,공공용,,6578,7973,Y,2021-05-31,서울특별시 동작구청,3190000,126.971627,37.490553,197490.7976,543456.0044
908,삼성래미안아파트,서울특별시 동작구 사당동 1133,서울특별시 동작구 사당로23바길 9,공공용,,44480,53915,Y,2021-05-31,서울특별시 동작구청,3190000,126.96919,37.489608,197275.1991,543351.204
909,롯데캐슬아파트,서울특별시 동작구 사당동 1132,서울특별시 동작구 사당로27길 190,공공용,,29117,35293,Y,2021-05-31,서울특별시 동작구청,3190000,126.9716,37.49096,197488.397,543501.2046
910,남성역,서울특별시 동작구 사당동 산 25-33,서울특별시 동작구 사당로 지하 218,공공용,,4879,5913,Y,2021-05-31,서울특별시 동작구청,3190000,126.971706,37.484444,197497.5981,542778.0039
1,신풍두산위브센티움,서울특별시 영등포구 신길동 425번지 8호,서울특별시 영등포구 대방천로 155 (신길동 신풍두산위브센티움),공공용,주차장,1290,100,Y,2020-09-18,관리소장,3180000,126.908211,37.499558,191883.4682,544459.0182
2,신길1동 신길자이아파트,서울특별시 영등포구 신길동 4938번지 신길자이아파트,서울특별시 영등포구 가마산로79길 19-0 (신길동),공공용,주차장,5556,.,Y,2020-09-18,관리소장,3180000,126.916308,37.506592,192600.1477,545239.0453
3,삼성래미안 프레비뉴 아파트,서울특별시 영등포구 신길동 4945번지,서울특별시 영등포구 가마산로 442 (신길동 래미안프레비뉴),공공용,주차장,46929.32,56884,Y,2020-09-18,관리소장,3180000,126.909527,37.504982,192000.42,545060.9043
4,보라매 두산위브 아파트 지하주차장,서울특별시 영등포구 신길동 4497번지,서울특별시 영등포구 여의대방로9길 5 (신길동 보라매두산위브),공공용,주차장,5779,7005,Y,2020-09-18,관리소장,3180000,126.914244,37.497412,192416.71,544220.3443
5,신대림2차신동아파밀리에아파트,서울특별시 영등포구 대림동 1125번지,서울특별시 영등포구 디지털로 420 (대림동 신대림2차신동아파밀리에),공공용,주차장,13556,1186,Y,2020-09-18,관리사무소장,3180000,126.904919,37.493405,191591.6799,543776.4063
6,우성2차아파트,서울특별시 영등포구 대림동 695번지,서울특별시 영등포구 도림로47길 1 (대림동),공공용,주차장,1800,345,Y,2020-09-18,관리소장,3180000,126.899908,37.495612,191148.79,544021.7843
7,진덕빌딩(지하주차장),서울특별시 영등포구 당산동2가 160번지 2호,서울특별시 영등포구 선유동1로 22 (당산동2가 당산주차빌딩),공공용,주차장,1017,1233,Y,2020-09-18,진덕산업 대표이사,3180000,126.892135,37.524008,190465.0779,547174.1354
8,영등포뉴타운지하상가,서울특별시 영등포구 영등포동3가 31번지,서울특별시 영등포구 영중로 지하 40 (영등포동3가 영등포뉴타운지하쇼핑몰),공공용,상가,7383.28,8949,Y,2020-09-18,운영부장,3180000,126.904869,37.519867,191590.2,546713.4043
9,서울남부고용노동지청,서울특별시 영등포구 양평동1가 115번지,서울특별시 영등포구 선유로 120 (양평동1가 노동부 남부지청),공공용,주차장,6267.24,7597,Y,2020-09-18,고용관리과장,3180000,126.890992,37.524758,190364.09,547257.5143
10,영등포세무서(지하주차장),서울특별시 영등포구 당산동3가 552번지 1호,서울특별시 영등포구 선유동1로 38 (당산동3가 영등포세무서),공공용,주차장,1655.54,2007,Y,2020-09-18,세무서장,3180000,126.892778,37.525294,190522.0447,547316.8418
11,영등포구청별관(A동 지하층),서울특별시 영등포구 당산동3가 560번지,서울특별시 영등포구 선유동1로 80 (당산동3가 영등포구청별관),공공용,주차장,737.84,894,Y,2020-09-18,영등포구청장,3180000,126.894467,37.52862,190671.7591,547685.8066
12,7호선대림역,서울특별시 영등포구 대림동 1050번지 17호,서울특별시 영등포구 도림로 지하 137 (대림동 대림역),공공용,지하철역,9357,11341,Y,2020-09-18,역장,3180000,126.896612,37.492743,190856.97,543703.7243
13,순영웰라이빌,서울특별시 영등포구 영등포동 648번지,서울특별시 영등포구 영등포로62길 42 (영등포동),공공용,주차장,5404,6550,Y,2020-09-18,관리사무실,3180000,126.913539,37.516542,192356.3373,546343.5901
14,대우이안(아)12 (101동~104동 지하),서울특별시 영등포구 양평동3가 54번지,서울특별시 영등포구 선유로33길 18 (양평동3가 양평동 대우이안2),공공용,주차장,4310,5224,Y,2020-09-18,관리소장,3180000,126.889506,37.527093,190233.02,547516.8143
15,신동아하이팰리스 (전동 지하),서울특별시 영등포구 양평동2가 1번지 1호,서울특별시 영등포구 선유서로 67 (양평동2가 신동아하이팰리스),공공용,주차장,17840.79,21625,Y,2020-09-18,관리소장,3180000,126.884455,37.522093,189785.9,546962.4843
16,래미안에스티움,서울특별시 영등포구 신길동 2039번지,서울특별시 영등포구 신풍로 77 (신길동 래미안에스티움),공공용,주차장,87849.09,8266,Y,2020-09-18,관리소장,3180000,126.911545,37.50042,192178.33,544554.3743
17,쌍용플래티넘시티1단지,서울특별시 영등포구 도림동 820번지,서울특별시 영등포구 도영로7길 15 (도림동 쌍용플래티넘시티1단지),공공용,주차장,9770.77,11843,Y,2020-09-18,관리소장,3180000,126.893624,37.509357,190594.801,545548.0038
18,영등포제1스포츠센터,서울특별시 영등포구 신길동 426번지 3호,서울특별시 영등포구 신풍로 1 (신길동 영등포제1스포츠센터),공공용,주차장,2333,2700,Y,2020-09-18,관리팀장,3180000,126.906305,37.500542,191715.04,544568.4143
19,브라운스톤 아파트,서울특별시 영등포구 영등포동7가 202번지,서울특별시 영등포구 버드나루로12가길 13 (영등포동7가 브라운스톤 영등포아파트),공공용,주차장,4320,500,Y,2020-09-18,관리소장,3180000,126.911451,37.524184,192172.56,547191.8843
20,영등포아트자이아파트,서울특별시 영등포구 도림동 821번지,서울특별시 영등포구 도영로 66 (도림동 영등포아트자이아파트),공공용,주차장,42778.83,51852,Y,2020-09-18,관리소장,3180000,126.900177,37.510395,191174.29,545662.5143
21,반도유보라팰리스(전동 지하1층~지하2층),서울특별시 영등포구 당산동4가 96번지,서울특별시 영등포구 국회대로 597 (당산동4가 당산동 반도유보라팰리스),공공용,주차장,8932,10827,Y,2020-09-18,관리소장,3180000,126.900791,37.527913,191230.64,547606.6943
22,삼성래미안4차(아)(전동 지하1층~지하2층),서울특별시 영등포구 당산동5가 42번지,서울특별시 영등포구 당산로 214 (당산동5가 당산 삼성 래미안),공공용,주차장,24565,29776,Y,2020-09-18,관리소장,3180000,126.902834,37.532931,191411.83,548163.5143
23,지하철7호선보라매역,서울특별시 동작구 대방동 466번지 51호,서울특별시 동작구 상도로 지하 2 (대방동 7호선 보라매역),공공용,지하철역,9266,11232,Y,2020-09-18,역장,3180000,126.920486,37.499911,192968.9303,544497.2199
24,두산위브아파트,서울특별시 영등포구 영등포동 649번지,서울특별시 영등포구 신길로60나길 9 (영등포동 두산위브),공공용,주차장,11179,13550,Y,2020-09-18,관리사무실,3180000,126.912441,37.51477,192259.0661,546146.9659
25,신대림자이아파트,서울특별시 영등포구 대림동 1121번지,서울특별시 영등포구 시흥대로173길 13 (대림동 신대림자이),공공용,주차장,21176.83,25667,Y,2020-09-18,관리소장,3180000,126.902342,37.486551,191362.9667,543015.8889
26,한솔솔파크아파트,서울특별시 영등포구 대림동 1123번지,서울특별시 영등포구 도림천로 431 (대림동 新 대림 한솔 솔파크),공공용,주차장,7890.9,9564,Y,2020-09-18,관리소장,3180000,126.899687,37.487676,191128.35,543141.0143
27,여의동주민자치센터,서울특별시 영등포구 여의도동 53번지 22호,서울특별시 영등포구 국제금융로 124 (여의도동 여의동주민센터),공공용,주차장,391,848,Y,2020-09-18,동장,3180000,126.934614,37.517678,194219.5788,546468.1682
28,신길7동주민센터,서울특별시 영등포구 신길동 897번지 3호,서울특별시 영등포구 여의대방로43길 10 (신길동 신길7동주민센터),공공용,주차장,380,461,Y,2020-09-18,신길7동장,3180000,126.921514,37.506369,193060.4378,545213.8652
29,문래힐스테이트,서울특별시 영등포구 문래동3가 94번지,서울특별시 영등포구 문래로 82 (문래동3가 문래힐스테이트),공공용,주차장,39702.45,48124,Y,2020-09-18,관리소장,3180000,126.891035,37.519194,190367.1957,546640.0039
30,삼성래미안아파트 지하주차장 (102동),서울특별시 영등포구 신길동 4934번지,서울특별시 영등포구 가마산로79길 7 (신길동),공공용,주차장,9364,11350,Y,2020-09-18,삼성래미안아파트관리소장,3180000,126.914598,37.50514,192448.79,545077.9943
31,삼성래미안아파트 지하주차장(106동),서울특별시 영등포구 신길동 4934번지,서울특별시 영등포구 가마산로79길 7 (신길동 삼성래미안아파트),공공용,주차장,7589,9196,Y,2020-09-18,삼성래미안아파트관리소장,3180000,126.914598,37.50514,192448.79,545077.9943
32,영등포아트홀(지하층),서울특별시 영등포구 당산동3가 3번지,서울특별시 영등포구 국회대로 596 (당산동3가 영등포구민회관),공공용,주차장,707.2,857,Y,2020-09-18,구의회의장,3180000,126.900109,37.526009,191170.18,547395.4543
33,지하철7호선신풍역,서울특별시 영등포구 신길동 3599번지,서울특별시 영등포구 신풍로 지하 27 (신길동 신풍역),공공용,지하철역,8662,10499,Y,2020-09-18,역장,3180000,126.909889,37.500119,192031.9066,544521.1496
34,9호선국회의사당역,서울특별시 영등포구 여의도동 1번지 6호,서울특별시 영등포구 국회대로 지하 758 (여의도동),공공용,지하철역,11089,13441,Y,2020-09-18,역장,3180000,126.917886,37.528014,192741.7048,547616.4943
35,9호선여의도역,서울특별시 영등포구 여의도동 3번지,서울특별시 영등포구 여의나루로 지하 40 (여의도동 여의도역),공공용,지하철역,9370,11357,Y,2020-09-18,역장,3180000,126.924485,37.521875,193324.4729,546934.6531
36,9호선샛강역,서울특별시 영등포구 여의도동 5번지 6호,서울특별시 영등포구 의사당대로 지하 166 (여의도동 샛강역),공공용,지하철역,10298,12482,Y,2020-09-18,역장,3180000,126.92908,37.51663,193730.23,546352.1743
37,지하철9호선선유도역,서울특별시 영등포구 양평동5가 66번지 1호,서울특별시 영등포구 양평로 지하 124 (양평동5가 선유도역),공공용,지하철역,8733.1,10586,Y,2020-09-18,그룹장,3180000,126.89342,37.538151,190580.4525,548743.7459
38,지하철9호선당산역(지하),서울특별시 영등포구 당산동6가 227번지 1호,서울특별시 영등포구 양평로 지하 40 (당산동6가 당산역),공공용,지하철역,13714,8121,Y,2020-09-18,그룹장,3180000,126.902171,37.533741,191353.36,548253.4043
39,당산푸르지오아파트,서울특별시 영등포구 영등포동8가 91번지,서울특별시 영등포구 영중로 154 (영등포동8가 당산 푸르지오),공공용,주차장,31810.16,38558,Y,2020-09-18,관리소장,3180000,126.906067,37.531188,191697.37,547969.7843
40,양평동우림이비지센터,서울특별시 영등포구 양평동3가 16번지,서울특별시 영등포구 양산로 43 (양평동3가 양평동우림 이 비지센타),공공용,주차장,11026.8,13366,Y,2020-09-18,관리소장,3180000,126.887942,37.525744,190094.6478,547367.2844
41,보라매 경남아너스빌 아파트 지하주차장(전동지하),서울특별시 영등포구 신길동 4780번지,서울특별시 영등포구 여의대방로 25 (신길동),공공용,주차장,8874,10756,Y,2020-09-18,관리소장,3180000,126.908978,37.494712,191950.81,543921.0843
42,동아에코빌,서울특별시 영등포구 도림동 165번지 1호,서울특별시 영등포구 도림로 365 (도림동 동아에코빌),공공용,주차장,13415,16261,Y,2020-09-18,관리소장,3180000,126.898684,37.508891,191042.1046,545495.6832
43,한라아파트,서울특별시 영등포구 도림동 231번지 1호,서울특별시 영등포구 도신로15라길 5-7 (도림동 한라아파트),공공용,주차장,5268,6385,Y,2020-09-18,관리소장,3180000,126.897378,37.507864,190926.5546,545381.8779
44,영등포푸르지오아파트,서울특별시 영등포구 영등포동 647번지,서울특별시 영등포구 도신로29길 28 (영등포동 영등포푸르지오),공공용,주차장,60500,73333,Y,2020-09-18,관리사무실,3180000,126.902326,37.511795,191364.4846,545817.67
45,대림동1차한신아파트,서울특별시 영등포구 대림동 887번지 1호,서울특별시 영등포구 디지털로69길 13 (대림동 대림동1차한신아파트),공공용,주차장,7084,8586,Y,2020-09-18,관리사무소장,3180000,126.903453,37.494472,191462.114,543894.9703
46,대림동현대아파트,서울특별시 영등포구 대림동 946번지 1호,서울특별시 영등포구 시흥대로187길 12 (대림동 대림동현대아파트),공공용,주차장,6183,7494,Y,2020-09-18,관리사무소장,3180000,126.908187,37.493034,191880.65,543734.9943
47,신길1동 경남아파트,서울특별시 영등포구 신길동 67번지 1호,서울특별시 영등포구 영등포로65길 3 (신길동 신길동경남아파트),공공용,주차장,12381,15007,Y,2020-09-18,관리소장,3180000,126.918406,37.515047,192786.4617,546177.2797
48,신길역 환승통로,서울특별시 영등포구 신길동 41번지 1호,서울특별시 영등포구 영등포로 327 (신길동 신길역),공공용,지하철역,2371,2874,Y,2020-09-18,역장,3180000,126.917225,37.517001,192682.237,546394.2403
49,삼성아파트112동 지하주차장,서울특별시 영등포구 신길동 4934번지 2호,서울특별시 영등포구 신길로42길 25 112동 1층 (신길동),공공용,주차장,2382,2887,Y,2020-09-18,삼성아파트112동관리소장,3180000,126.913735,37.507319,192372.76,545319.9243
50,한화꿈에그린아파트주차장,서울특별시 영등포구 신길동 4937번지,서울특별시 영등포구 신길로 119 (신길동 신길뉴타운 한화 꿈에그린),공공용,주차장,13003,15761,Y,2020-09-18,관리과장,3180000,126.90971,37.50351,192016.41,544897.5543
51,대성유니드아파트 지하주차장,서울특별시 영등포구 신길동 389번지,서울특별시 영등포구 가마산로50길 27 (신길동 신길동 대성 유니드 아파트),공공용,주차장,3023,3664,Y,2020-09-18,관리소장,3180000,126.902931,37.501645,191416.8178,544691.0902
52,삼성래미안아파트 2단지 지하주차장,서울특별시 영등포구 신길동 4934번지 1호,서울특별시 영등포구 신길로42길 35 108동 (신길동),공공용,주차장,8341.72,10111,Y,2020-09-18,삼성래미안아파트관리소장,3180000,126.914966,37.507594,192481.6005,545350.4041
53,한강미디어고등학교,서울특별시 영등포구 양평동4가 315번지 1호,서울특별시 영등포구 선유로55길 22 (양평동4가 한강미디어고등학교),공공용,기타,1487.61,1800,Y,2020-09-18,교장,3180000,126.89724,37.539291,190918.1281,548869.9462
54,건영아파트,서울특별시 영등포구 신길동 364번지,서울특별시 영등포구 도림로 313 (신길동 건영아파트),공공용,주차장,660.81,793,Y,2020-09-18,관리소장,3180000,126.901419,37.505442,191283.5628,545112.6849
55,우성5차아파트,서울특별시 영등포구 신길동 4933번지,서울특별시 영등포구 도신로 100 (신길동 신길우성5차아파트),공공용,주차장,6577.55,7893,Y,2020-09-18,관리소장,3180000,126.903275,37.506738,191447.8165,545256.3984
56,우성1차아파트,서울특별시 영등포구 신길동 365번지,서울특별시 영등포구 도신로 68 (신길동 신길우성아파트),공공용,주차장,4132.25,5009,Y,2020-09-18,관리소장,3180000,126.89979,37.505762,191139.6014,545148.404
57,정오빌딩,서울특별시 영등포구 신길동 1300번지,서울특별시 영등포구 영등포로 422 (신길동),공공용,주차장,705,855,Y,2020-09-18,관리소장,3180000,126.924809,37.512392,193352.26,545882.1343
58,대방지하차도,서울특별시 영등포구 신길동 1376번지 1호,서울특별시 영등포구 영등포로 423 (신길동 신양치안센터),공공용,차도,284.3,344,Y,2020-09-18,남부도로사업소,3180000,126.925181,37.512881,193385.2328,545936.3833
59,삼환아파트,서울특별시 영등포구 신길동 897번지 2호,서울특별시 영등포구 여의대방로43나길 25 (신길동 삼환아파트),공공용,주차장,4657,5535,Y,2020-09-18,관리소장,3180000,126.920789,37.506624,192996.37,545242.2543
60,한성아파트,서울특별시 영등포구 신길동 769번지 1호,서울특별시 영등포구 가마산로 575 (신길동 한성아파트),공공용,주차장,2281,2764,Y,2020-09-18,관리소장,3180000,126.919574,37.504841,192888.74,545044.4943
61,천록빌딩,서울특별시 영등포구 신길동 1351번지 3호,서울특별시 영등포구 여의대방로61길 2 (신길동 천록빌딩),공공용,주차장,297,360,Y,2020-09-18,관리부장,3180000,126.926044,37.514358,193461.6598,546100.2513
62,현대건설기술교육원,서울특별시 영등포구 대림동 1100번지 1호,서울특별시 영등포구 도림천로19길 12-2 (대림동),공공용,주차장,1398.35,1692,Y,2020-09-18,총무과장,3180000,126.901183,37.487141,191260.5636,543081.5557
63,안국약품빌딩,서울특별시 영등포구 대림동 993번지 75호,서울특별시 영등포구 시흥대로 613 (대림동),공공용,주차장,1487.61,1803,Y,2020-09-18,관리소장,3180000,126.904611,37.487353,191563.7762,543104.75
64,현대1차아파트,서울특별시 영등포구 대림동 785번지 1호,서울특별시 영등포구 도신로4길 14 (대림동 현대아파트),공공용,주차장,1583.48,1916,Y,2020-09-18,관리소장,3180000,126.893811,37.501667,190610.3979,544694.4403
65,신동아아파트,서울특별시 영등포구 대림동 777번지 1호,서울특별시 영등포구 대림로31길 39 (대림동),공공용,주차장,3649.6,4416,Y,2020-09-18,관리소장,3180000,126.894786,37.495333,190695.83,543991.3443
66,우성아파트,서울특별시 영등포구 대림동 762번지 1호,서울특별시 영등포구 도림로 187 (대림동),공공용,주차장,2314.06,2800,Y,2020-09-18,관리소장,3180000,126.900592,37.495566,191209.3,544016.6243
67,현대2차아파트,서울특별시 영등포구 대림동 785번지,서울특별시 영등포구 도신로4길 6 (대림동),공공용,주차장,4360.35,5276,Y,2020-09-18,관리소장,3180000,126.894248,37.502644,190649.1961,544802.8045
68,현대3차아파트,서울특별시 영등포구 대림동 608번지 1호,서울특별시 영등포구 도신로 31 (대림동),공공용,주차장,10219.46,976,Y,2020-09-18,관리소장,3180000,126.895153,37.506234,190729.6004,545201.2045
69,우성4차아파트,서울특별시 영등포구 신길동 102번지 8호,서울특별시 영등포구 영등포로64길 11 (신길동 신길우성아파트),공공용,주차장,3053,3700,Y,2020-09-18,관리사무실,3180000,126.917357,37.514186,192693.6027,546081.8006
70,영등포역사,서울특별시 영등포구 영등포동 618번지 496호,서울특별시 영등포구 경인로 846 (영등포동 영등포 민자역사),공공용,지하철역,16870,20448,Y,2020-09-18,철도공사역장,3180000,126.907668,37.515628,191837.194,546242.6408
71,영등포역지하도,서울특별시 영등포구 영등포동 618번지 496호,서울특별시 영등포구 경인로 846 (영등포동 영등포 민자역사),공공용,지하철역,6669.48,8084,Y,2020-09-18,철도공사,3180000,126.907668,37.515669,191837.1985,546247.2046
72,대림1동어린이집,서울특별시 영등포구 대림동 899번지 2호,서울특별시 영등포구 디지털로 441 (대림동 구립대림제1동복지관),공공용,유아원,240.8,292,Y,2020-09-18,원장,3180000,126.905842,37.495462,191673.5305,544004.6222
73,문영칸타빌레아파트,서울특별시 영등포구 대림동 1061번지,서울특별시 영등포구 도림천로 391 (대림동 대림동문영칸타빌레아파트),공공용,주차장,743.81,901,Y,2020-09-18,관리소장,3180000,126.897019,37.489718,190892.64,543367.9543
74,코오롱아파트,서울특별시 영등포구 대림동 607번지 1호,서울특별시 영등포구 도영로 2-5 (대림동),공공용,주차장,11867.39,240,Y,2020-09-18,관리소장,3180000,126.894325,37.507143,190656.53,545302.1243
75,양평2동 거성아파트 지하주차장 12층,서울특별시 영등포구 양평동3가 90번지 1호,서울특별시 영등포구 선유로43가길 24 (양평동3가 거성파스텔아파트),공공용,주차장,20088.29,3700,Y,2020-09-18,동대표,3180000,126.892012,37.531459,190455.0941,548001.1801
76,당산근린공원(지하주차장),서울특별시 영등포구 당산동3가 385번지,서울특별시 영등포구 당산로27길 12 (당산동3가),공공용,주차장,6241,7565,Y,2020-09-18,시설관리공단 이사장,3180000,126.895135,37.525218,190730.3573,547308.1655
77,당산제1동주민센터(지하층),서울특별시 영등포구 당산동3가 250번지,서울특별시 영등포구 양산로23길 11 (당산동3가 당산1동주민자치센터),공공용,기타,121,147,Y,2020-09-18,당산제1동장,3180000,126.897405,37.525128,190931.02,547297.9743
78,신길종합사회복지관,서울특별시 영등포구 신길동 465번지 1호,서울특별시 영등포구 영등포로84길 24-5 (신길동 신길종합사회복지관),공공용,기타,3604,4368,Y,2020-09-18,관장,3180000,126.921433,37.511118,193053.7343,545741.0272
79,영등포구청(지하상황실),서울특별시 영등포구 당산동3가 385번지 1호,서울특별시 영등포구 당산로 123 (당산동3가 영등포구청),공공용,회의실,552.64,670,Y,2020-09-18,구청장,3180000,126.896367,37.525963,190839.39,547390.7543
80,영등포시장앞지하상가,서울특별시 영등포구 영등포동5가 20번지 62호,서울특별시 영등포구 영등포로 219 (영등포동5가),공공용,상가,1266.12,1534,Y,2020-09-18,소장,3180000,126.90575,37.520122,191668.0975,546741.5864
81,영등포로터리지하상가,서울특별시 영등포구 영등포동4가 434번지 5호,서울특별시 영등포구 영중로 9 (영등포동4가 신세계백화점),공공용,상가,6333.91,7677,Y,2020-09-18,소장,3180000,126.905517,37.517148,191647.2087,546411.5527
82,영등포역앞지하상가,서울특별시 영등포구 영등포동 618번지 496호,서울특별시 영등포구 경인로 846 (영등포동 영등포 민자역사),공공용,상가,4684.32,5677,Y,2020-09-18,소장,3180000,126.907633,37.515669,191834.1131,546247.2077
83,지하철5호선신길전철역,서울특별시 영등포구 영등포동1가 35번지,서울특별시 영등포구 경인로114가길 지하 9 (영등포동1가 신길역),공공용,지하철역,13104.19,15883,Y,2020-09-18,역장,3180000,126.914356,37.517664,192428.6748,546468.0519
84,영등포시장역,서울특별시 영등포구 영등포동5가 62번지 1호,서울특별시 영등포구 양산로 지하 200 (영등포동5가 영등포시장역),공공용,지하철역,14052.96,17033,Y,2020-09-18,역장,3180000,126.904908,37.522744,191593.9977,547032.6705
85,중소기업중앙회,서울특별시 영등포구 여의도동 16번지 2호,서울특별시 영등포구 은행로 30 (여의도동 중소기업중앙회),공공용,주차장,8019,9720,Y,2020-09-18,시설팀장,3180000,126.922644,37.528189,193162.333,547635.5606
86,여의도국회앞지하보도(더？騁팀狗５樣컵㈍？),서울특별시 영등포구 여의도동 17번지,서울특별시 영등포구 의사당대로 38 (여의도동 여의도더샵아일랜드파크),공공용,보도,3666,4443,Y,2020-09-18,동장,3180000,126.918618,37.52603,192806.2233,547396.29
87,지하철5호선여의나루역,서울특별시 영등포구 여의도동 84번지 4호,서울특별시 영등포구 여의동로 지하 343 (여의도동 여의나루역),공공용,지하철역,5067.01,6141,Y,2020-09-18,역장,3180000,126.932864,37.527085,194065.61,547512.3543
88,5호선여의도역,서울특별시 영등포구 여의도동 3번지,서울특별시 영등포구 여의나루로 지하 40 (여의도동 여의도역),공공용,지하철역,6823,8270,Y,2020-09-18,역장,3180000,126.924431,37.521828,193319.7228,546929.4405
89,63한화생명빌딩,서울특별시 영등포구 여의도동 60번지,서울특별시 영등포구 63로 50 (여의도동 63한화생명빌딩),공공용,주차장,22725,27545,Y,2020-09-18,시설담당,3180000,126.939909,37.519664,194687.85,546688.2943
90,지하철 2호선 영등포구청역,서울특별시 영등포구 당산동3가 270번지 1호,서울특별시 영등포구 당산로 지하 121 (당산동3가),공공용,지하철역,7414.91,8988,Y,2020-09-18,역장,3180000,126.896627,37.525689,190862.3187,547360.301
91,지하철 5호선 영등포구청역,서울특별시 영등포구 당산동3가 556번지 1호,서울특별시 영등포구 양산로 지하 116 (당산동3가 영등포구청역),공공용,지하철역,10738,13015,Y,2020-09-18,역장,3180000,126.895297,37.524214,190744.5799,547196.7244
92,유통상가(자하층),서울특별시 영등포구 당산동2가 30번지 2호,서울특별시 영등포구 영등포로 109 (당산동2가 영등포유통상가),공공용,상가,1801.66,2184,Y,2020-09-18,대표이사,3180000,126.893917,37.522417,190622.3673,546997.4656
93,동양타워빌딩(지하2층~지하5층),서울특별시 영등포구 당산동4가 93번지 1호,서울특별시 영등포구 국회대로 543 (당산동4가 동양석판사옥),공공용,주차장,8830,5415,Y,2020-09-18,관리소장,3180000,126.895333,37.529175,190748.3749,547747.3303
94,지하철2호선문래역,서울특별시 영등포구 문래동3가 68번지 1호,서울특별시 영등포구 당산로 지하 28 (문래동3가 문래역),공공용,지하철역,6482.67,7844,Y,2020-09-18,역장,3180000,126.894763,37.517921,190696.6,546498.3843
95,문래청소년회관,서울특별시 영등포구 문래동3가 73번지,서울특별시 영등포구 문래로 110 (문래동3가 문래청소년회관),공공용,체육관,4310.76,5225,Y,2020-09-18,관장,3180000,126.894115,37.518844,190639.399,546600.8385
96,현대2차아파트,서울특별시 영등포구 문래동6가 45번지,서울특별시 영등포구 문래로4길 4 (문래동6가 현대아파트),공공용,주차장,2115.71,2560,Y,2020-09-18,관리소장,3180000,126.883536,37.520375,189704.4161,546771.8655
97,현대3차아파트,서울특별시 영등포구 문래동5가 21번지,서울특별시 영등포구 선유서로 6 (문래동5가 현대3차아파트),공공용,주차장,806.62,977,Y,2020-09-18,관리소장,3180000,126.884687,37.515953,189805.59,546280.9843
98,미원아파트,서울특별시 영등포구 문래동6가 54번지,서울특별시 영등포구 문래로8길 5 (문래동6가 문래동미원아파트),공공용,주차장,1692.57,2048,Y,2020-09-18,관리소장,3180000,126.886419,37.519878,189959.2021,546716.4042
99,베어스타운아파트,서울특별시 영등포구 문래동6가 38번지 1호,서울특별시 영등포구 선유서로 40 (문래동6가 베어스타운아파트),공공용,주차장,6158.71,7465,Y,2020-09-18,관리소장,3180000,126.884837,37.51902,189819.21,546621.2843
100,현대6차아파트,서울특별시 영등포구 문래동6가 55번지 1호,서울특별시 영등포구 선유서로 31 (문래동6가 문래동현대6차아파트),공공용,주차장,1477.69,1788,Y,2020-09-18,관리소장,3180000,126.883964,37.518639,189742.0143,546579.1445
101,현대5차아파트,서울특별시 영등포구 문래동5가 23번지 1호,서울특별시 영등포구 선유서로9길 5 (문래동5가 문래현대5차아파트),공공용,주차장,5130,6200,Y,2020-09-18,관리소장,3180000,126.883259,37.517889,189679.6043,546496.0043
102,지하철5호선양평역,서울특별시 영등포구 양평동2가 33번지 79호,서울특별시 영등포구 양산로 지하 21 (양평동2가),공공용,지하철역,2290,2776,Y,2020-09-18,양평역장,3180000,126.886866,37.525512,189999.45,547341.6143
103,한신아파트 지하주차장 12층,서울특별시 영등포구 양평동5가 76번지,서울특별시 영등포구 양평로24길 9 (양평동5가 양평동한신아파트),공공용,주차장,5940,7200,Y,2020-09-18,동대표,3180000,126.891746,37.54028,190432.72,548980.2443
393,아이파크아파트,서울특별시 구로구 개봉동 489,서울특별시 구로구 개봉로2길 133-15,공공용,주차장,30933,37494,Y,2020-09-15,서울특별시 구로구 개봉2동주민센터,3160000,126.860071,37.489504,187624.9633,543348.3648
394,한진아파트,서울특별시 구로구 개봉동 478번지,서울특별시 구로구 개봉로3길 87,공공용,주차장,27225,33000,Y,2020-09-15,서울특별시 구로구 개봉3동주민센터,3160000,126.850971,37.485899,186819.5629,542949.5043
395,영화아이닉스아파트,서울특별시 구로구 개봉동 488번지,서울특별시 구로구 개봉로1길 188,공공용,주차장,6237,7560,Y,2020-09-15,서울특별시 구로구 개봉3동주민센터,3160000,126.849426,37.482986,186682.3939,542626.4748
396,대상아파트,서울특별시 구로구 개봉동 477번지,서울특별시 구로구 개봉로1길 170,공공용,주차장,1653,2000,Y,2020-09-15,서울특별시 구로구 개봉3동주민센터,3160000,126.849629,37.482322,186700.266,542552.6842
397,거성아파트,서울특별시 구로구 개봉동 270번지 80호,서울특별시 구로구 개봉로15길 91,공공용,주차장,1322,1600,Y,2020-09-15,서울특별시 구로구 개봉3동주민센터,3160000,126.851081,37.489645,186829.9226,543365.2648
398,개봉3동주민센터,서울특별시 구로구 개봉동 360번지 7호,서울특별시 구로구 개봉로3길 47-5,공공용,창고,139,168,N,2020-09-15,서울특별시 구로구 개봉3동주민센터,3160000,126.853827,37.485954,187072.1632,542955.2414
399,우성현대아파트,서울특별시 구로구 고척동 76-55,서울특별시 구로구 중앙로1길 18-19,공공용,지하주차장,628,761,Y,2020-09-15,서울특별시 구로구 고척1동주민센터,3160000,126.863149,37.498577,187898.6658,544355.0341
400,우성꿈동산,서울특별시 구로구 고척동 321,서울특별시 구로구 경인로47다길 34-7,공공용,지하주차장,2598,3149,Y,2020-09-15,서울특별시 구로구 고척1동주민센터,3160000,126.865958,37.503274,188147.8002,544875.9843
401,센츄리아파트,서울특별시 구로구 고척동 320,서울특별시 구로구 중앙로12길 12,공공용,지하주차장,2554,3095,Y,2020-09-15,서울특별시 구로구 고척1동주민센터,3160000,126.861878,37.504959,187787.3232,545063.4938
402,일이삼전자타운,서울특별시 구로구 고척동 73-3,서울특별시 구로구 경인로 393-7,공공용,기타,2817,3414,Y,2020-09-15,서울특별시 구로구 고척1동주민센터,3160000,126.863047,37.497408,187889.4485,544225.26
403,삼환로즈빌,서울특별시 구로구 고척동 336,서울특별시 구로구 경인로 343,공공용,지하주차장,22833,27676,Y,2020-09-15,서울특별시 구로구 고척1동주민센터,3160000,126.857433,37.498303,187393.1169,544325.364
404,고척도서관,서울특별시 구로구 고척동9번지14호,서울특별시 구로구 고척로45길 31,공공용,도서관,2770,3351,Y,2020-09-15,서울특별시 구로구 고척2동주민센터,3160000,126.853055,37.505346,187007.2458,545107.6086
405,구로구민체육센터,서울특별시 구로구 고척동9번지14호,서울특별시 구로구 고척로45길 39,공공용,체육센터,628,759,Y,2020-09-15,서울특별시 구로구 고척2동주민센터,3160000,126.853278,37.506582,187027.1772,545244.7581
406,고척2동 주민센터,서울특별시 구로구 고척동339번지2호,서울특별시 구로구 중앙로15길 22,공공용,주민센터,66,79,Y,2020-09-15,서울특별시 구로구 고척2동주민센터,3160000,126.858605,37.506649,187498.2163,545251.4732
2509,을지로3구역지하쇼핑센터,,서울특별시 중구 을지로 지하131,공공용,,14430,17490,Y,2021-06-01,서울특별시 중구청,3010000,126.994078,37.566446,199476.8001,551878.8039
407,고척대우아파트,서울특별시 구로구 고척동296번지,서울특별시 구로구 고척로52길 48,공공용,지하주차장,36975,44739,Y,2020-09-15,서울특별시 구로구 고척2동주민센터,3160000,126.855114,37.503399,187188.9505,544891.1843
408,현대홈타운아파트,서울특별시 구로구 개봉동 480,서울특별시 구로구 개봉로 20길 158,공공용,주차장,18182,22000,Y,2020-09-15,서울특별시 구로구 개봉2동주민센터,3160000,126.860737,37.492042,187684.3329,543630.0344
409,현대아파트,서울특별시 구로구 개봉동 481,서울특별시 구로구 개봉로 20길 6,공공용,주차장,56199,68000,Y,2020-09-15,서울특별시 구로구 개봉2동주민센터,3160000,126.859308,37.49288,187558.0719,543723.2239
410,영화아파트,서울특별시 구로구 개봉동 475,서울특별시 구로구 경인로40길 11,공공용,주차장,2975,3600,Y,2020-09-15,서울특별시 구로구 개봉1동주민센터,3160000,126.859423,37.496057,187568.7241,544075.7646
411,한국컨벤션웨딩홀,서울특별시 구로구 개봉동 166-2,서울특별시 구로구 경인로 314,공공용,주차장,1505,1821,Y,2020-09-15,서울특별시 구로구 개봉1동주민센터,3160000,126.855224,37.496823,187197.572,544161.3845
412,건영아파트,서울특별시 구로구 개봉동 47-1,서울특별시 구로구 고척로21나길 85-6,공공용,주차장,760,920,Y,2020-09-15,서울특별시 구로구 개봉1동주민센터,3160000,126.840792,37.50134,185922.2088,544664.7809
413,창동아파트,서울특별시 구로구 개봉동 20-1,서울특별시 구로구 고척로21나길 48-80,공공용,기타,1388,1680,Y,2020-09-15,서울특별시 구로구 개봉1동주민센터,3160000,126.842359,37.504006,186061.2205,544960.4141
414,개봉2동주민센터,서울특별시 구로구 개봉동 261-6,서울특별시 구로구 개봉로16가길 17,공공용,동주민센터,142,172,Y,2020-09-15,서울특별시 구로구 개봉2동주민센터,3160000,126.856533,37.490828,187312.3118,543495.8257
415,중소기업은행,서울특별시 구로구 개봉동 403-45,서울특별시 구로구 개봉로 60,공공용,주차장,331,400,Y,2020-09-15,서울특별시 구로구 개봉2동주민센터,3160000,126.856271,37.491113,187289.1897,543527.4358
416,동인아파트,서울특별시 구로구 개봉동 335-1,서울특별시 구로구 서해안로34가길 22,공공용,주차장,594,720,Y,2020-09-15,서울특별시 구로구 개봉2동주민센터,3160000,126.849081,37.493872,186653.7993,543834.684
417,상우아파트,서울특별시 구로구 개봉동 473,서울특별시 구로구 남부순환로97길 50,공공용,주차장,1802,2180,Y,2020-09-15,서울특별시 구로구 개봉2동주민센터,3160000,126.86051,37.493709,187664.4615,543815.0485
418,두산아파트,서울특별시 구로구 개봉동 472,서울특별시 구로구 남부순환로95길 88,공공용,주차장,13425,16244,Y,2020-09-15,서울특별시 구로구 개봉2동주민센터,3160000,126.851731,37.495325,186888.3913,543995.6046
419,삼호아파트,서울특별시 구로구 개봉동 471,서울특별시 구로구 남부순환로95길 16,공공용,주차장,3524,4264,Y,2020-09-15,서울특별시 구로구 개봉2동주민센터,3160000,126.857308,37.494568,187381.4703,543910.804
420,삼환아파트,서울특별시 구로구 개봉동 470,서울특별시 구로구 남부순환로95길 54,공공용,주차장,12430,15040,Y,2020-09-15,서울특별시 구로구 개봉2동주민센터,3160000,126.854711,37.495035,187151.8661,543962.9741
421,진로아파트,서울특별시 구로구 개봉동 479,서울특별시 구로구 개봉로 15길 84-15,공공용,주차장,1398,1692,Y,2020-09-15,서울특별시 구로구 개봉2동주민센터,3160000,126.850857,37.490481,186810.2685,543458.1245
422,새솔금호아파트,서울특별시 구로구 구로동 108번지 2호,서울특별시 구로구 공원로 35,공공용,아파트주차장,8141,9850,Y,2020-09-15,서울특별시 구로구 구로5동주민센터,3160000,126.890521,37.500162,190319.2813,544527.7347
423,신안타워,서울특별시 구로구 구로동 100번지 8호,서울특별시 구로구 구로중앙로 68,공공용,아파트주차장,3713,4492,Y,2020-09-15,서울특별시 구로구 구로5동주민센터,3160000,126.888807,37.49586,190167.1917,544050.4838
424,롯데아파트,서울특별시 구로구 구로동 1263번지,서울특별시 구로구 새말로 31,공공용,아파트주차장,52800,63888,Y,2020-09-15,서울특별시 구로구 구로5동주민센터,3160000,126.884825,37.504381,189816.1839,544996.5939
425,신도림태영타운아파트,서울특별시 구로구 구로동 1267번지,서울특별시 구로구 새말로 93,공공용,아파트주차장,79200,95832,Y,2020-09-15,서울특별시 구로구 구로5동주민센터,3160000,126.889103,37.506234,190194.7326,545201.8443
426,일신건영아파트,서울특별시 구로구 구로동 1261번지,서울특별시 구로구 새말로9길 22,공공용,아파트주차장,3960,4791,Y,2020-09-15,서울특별시 구로구 구로5동주민센터,3160000,126.885745,37.503619,189897.4368,544911.9225
427,효성아파트,서울특별시 구로구 구로동 110번지 10호,서울특별시 구로구 구로중앙로28다길 24,공공용,아파트주차장,4290,5190,Y,2020-09-15,서울특별시 구로구 구로5동주민센터,3160000,126.888719,37.501562,190160.1315,544683.3068
428,LG자이아아파트,서울특별시 구로구 구로동 42번지,서울특별시 구로구 새말로18길 64,공공용,아파트주차장,9240,11180,Y,2020-09-15,서울특별시 구로구 구로5동주민센터,3160000,126.89191,37.503648,190442.5927,544914.5437
429,거성아파트1차,서울특별시 구로구 개봉동 60-101,서울특별시 구로구 고척로 85,공공용,주차장,1217,1472,Y,2020-09-15,서울특별시 구로구 개봉1동주민센터,3160000,126.843823,37.501074,186190.1639,544634.7948
430,거성아파트2차,서울특별시 구로구 개봉동 60-82,서울특별시 구로구 고척로 82,공공용,주차장,8317,10064,Y,2020-09-15,서울특별시 구로구 개봉1동주민센터,3160000,126.843106,37.499804,186126.52,544493.9843
431,우성아파트,서울특별시 구로구 개봉동 469,서울특별시 구로구 고척로19길 69-6,공공용,주차장,1402,1696,Y,2020-09-15,서울특별시 구로구 개봉1동주민센터,3160000,126.843678,37.504521,186178.022,545017.3245
432,동도센트리움,서울특별시 구로구 개봉동 70-12,서울특별시 구로구 고척로22길 84,공공용,주차장,3484,4216,Y,2020-09-15,서울특별시 구로구 개봉1동주민센터,3160000,126.846809,37.498145,186453.7139,544309.2839
433,대림프라자,서울특별시 구로구 개봉동 156-5,서울특별시 구로구 경인로 319,공공용,기타,661,800,Y,2020-09-15,서울특별시 구로구 개봉1동주민센터,3160000,126.855611,37.497577,187231.9225,544244.9996
434,더이스턴하우스,서울특별시 구로구 개봉동 143-1,서울특별시 구로구 경인로 297,공공용,기타,969,1172,Y,2020-09-15,서울특별시 구로구 개봉1동주민센터,3160000,126.853534,37.497942,187048.3021,544285.7937
435,한마을아파트,서울특별시 구로구 개봉동 476,서울특별시 구로구 경인로 382,공공용,주차장,216427,261876,Y,2020-09-15,서울특별시 구로구 개봉1동주민센터,3160000,126.863082,37.496373,187892.3941,544110.3839
436,고운아파트,서울특별시 구로구 개봉동 484,서울특별시 구로구 경인로 271,공공용,주차장,3437,4158,Y,2020-09-15,서울특별시 구로구 개봉1동주민센터,3160000,126.850907,37.499034,186816.1673,544407.3242
437,동부덕고개아파트,서울특별시 구로구 오류동 336,서울특별시 구로구 경인로 248-14,공공용,주차장,2215,2680,Y,2020-09-15,서울특별시 구로구 오류1동주민센터,3160000,126.847879,37.49756,186548.1558,544244.1843
438,한신플러스타운,서울특별시 구로구 오류동 341,서울특별시 구로구 고척로 52,공공용,주차장,12893,15600,Y,2020-09-15,서울특별시 구로구 오류1동주민센터,3160000,126.840471,37.498568,185893.2767,544357.1948
439,삼천리아파트,서울특별시 구로구 오류동 340,서울특별시 구로구 경인로8길75,공공용,주차장,16104,19520,Y,2020-09-15,서울특별시 구로구 오류2동주민센터,3160000,126.839573,37.49287,185812.7999,543724.8244
440,오류2동주민센터,서울특별시 구로구 오류동 172-76,서울특별시 구로구 오류로45,공공용,주민센터,118,80,Y,2020-09-15,서울특별시 구로구 오류2동주민센터,3160000,126.839513,37.488814,185806.7707,543274.6747
441,그린빌라,서울특별시 구로구 항동 1-5,서울특별시 구로구 연동로287,공공용,기타,331,400,Y,2020-09-15,서울특별시 구로구항동주민센터,3160000,126.823249,37.4873,184368.0788,543109.2444
442,금강아파트,서울특별시 구로구 오류동 335,서울특별시 구로구 서해안로34가길18,공공용,주차장,992,1200,Y,2020-09-15,서울특별시 구로구 오류2동주민센터,3160000,126.848185,37.493791,186574.5314,543825.8148
443,현대연립,서울특별시 구로구 오류동 156-15,서울특별시 구로구 오류로 62-15,공공용,주차장,331,400,Y,2020-09-15,서울특별시 구로구 오류2동주민센터,3160000,126.841347,37.489455,185969.0784,543345.5746
444,경남아너스빌,서울특별시 구로구 오류동 344,서울특별시 구로구 오류로 65,공공용,주차장,12672,15360,Y,2020-09-15,서울특별시 구로구 오류2동주민센터,3160000,126.840113,37.490645,185860.1791,543477.8348
445,금강수목원아파트,서울특별시 구로구 오류동 343,서울특별시 구로구 오리로1197,공공용,주차장,14962,18136,Y,2020-09-15,서울특별시 구로구 오류2동주민센터,3160000,126.834111,37.488709,185328.96,543263.9347
446,영풍마드레빌아파트,서울특별시 구로구 오류동 342,서울특별시 구로구 경인로8길64,공공용,주차장,25179,30520,Y,2020-09-15,서울특별시 구로구 오류2동주민센터,3160000,126.840292,37.492169,185876.2342,543646.9145
447,천왕전철역,서울특별시 구로구 오류동 174-5,서울특별시 구로구 오리로 1154지하,공공용,전철역,6549,7924,Y,2020-09-15,서울특별시 구로구 오류2동주민센터,3160000,126.838713,37.486821,185735.6143,543053.6497
448,천왕이펜하우스1단지,서울특별시 구로구 천왕동 27,서울특별시 구로구 천왕로91,공공용,주차장,13313,16108,Y,2020-09-15,서울특별시 구로구 오류2동주민센터,3160000,126.837447,37.486689,185623.6226,543039.192
449,천왕이펜하우스2단지,서울특별시 구로구 천왕동 27,서울특별시 구로구 천왕로92,공공용,주차장,23430,28350,Y,2020-09-15,서울특별시 구로구 오류2동주민센터,3160000,126.838088,37.485229,185680.0347,542877.0335
450,천왕이펜하우스3단지,서울특별시 구로구 천왕동27,서울특별시 구로구 천왕로56,공공용,주차장,47438,57399,Y,2020-09-15,서울특별시 구로구 오류2동주민센터,3160000,126.838915,37.483053,185752.7374,542635.444
451,천왕이펜하우스4단지,서울특별시 구로구 천왕동27,서울특별시 구로구 천왕로29,공공용,주차장,21406,25901,Y,2020-09-15,서울특별시 구로구 오류2동주민센터,3160000,126.838595,37.480802,185724.033,542385.6378
452,천왕이펜하우스5단지,서울특별시 구로구 천왕동27,서울특별시 구로구 천왕로10,공공용,주차장,19601,23717,Y,2020-09-15,서울특별시 구로구 오류2동주민센터,3160000,126.842163,37.480727,186039.6021,542376.7788
453,천왕이펜하우스6단지,서울특별시 구로구 천왕동27,서울특별시 구로구 천왕로9,공공용,주차장,26707,32315,Y,2020-09-15,서울특별시 구로구 오류2동주민센터,3160000,126.842258,37.479021,186047.6433,542187.3947
454,서서울생활과학고,서울특별시 구로구 궁동 35,서울특별시 구로구 오리로 1355-10,공공용,박물관,2496,3020,Y,2020-09-15,서울특별시 구로구 수궁동주민센터,3160000,126.82826,37.503829,184814.58,544942.9742
455,예림디자인고등학교,서울특별시 구로구 궁동 110-1,서울특별시 구로구 오리로21길 2,공공용,식당,2562,3100,Y,2020-09-15,서울특별시 구로구 수궁동주민센터,3160000,126.827683,37.500355,184762.8589,544557.4845
456,우신고등학교,서울특별시 구로구 궁동 230-9,서울특별시 구로구 부일로917,공공용,학습실,613,741,Y,2020-09-15,서울특별시 구로구 수궁동주민센터,3160000,126.826354,37.494902,184644.19,543952.5144
457,정진학교,서울특별시 구로구 궁동 242,서울특별시 구로구 부일로9길 158,공공용,학습실,370,447,Y,2020-09-15,서울특별시 구로구 수궁동주민센터,3160000,126.820752,37.498814,184149.6498,544387.6446
458,수궁동주민센터,서울특별시 구로구 궁동 213,서울특별시 구로구 오리로15길 32,공공용,회의실,116,140,Y,2020-09-15,서울특별시 구로구 수궁동주민센터,3160000,126.831454,37.493865,185095.0202,543836.5666
459,서울공연예술고등학교,서울특별시 구로구 궁동 147-1,서울특별시 구로구 오리로22나길 16-26,공공용,주차장,301,364,Y,2020-09-15,서울특별시 구로구 수궁동주민센터,3160000,126.832609,37.499931,185198.3308,544509.5944
460,온수전철역,서울특별시 구로구 온수동 51,서울특별시 구로구 부일로 64,공공용,지하철역,8160,9873,Y,2020-09-15,서울특별시 구로구 수궁동주민센터,3160000,126.491692,37.292882,154928.627,521638.2549
461,기독교한국침례회 연세중앙교회,서울특별시 구로구 궁동 189,서울특별시 구로구 부일로 977,공공용,주차장,18088,21886,Y,2020-09-15,서울특별시 구로구 수궁동주민센터,3160000,126.835258,37.49513,185431.6818,543976.3242
462,동선아파트,서울특별시 구로구 오류동 345,서울특별시 구로구 경인로 158,공공용,주차장,3074,3719,Y,2020-09-15,서울특별시 구로구 오류1동주민센터,3160000,126.839509,37.493652,185807.2794,543811.6848
463,미성빌딩,서울특별시 구로구 구로동83,서울특별시 구로구 가마산로242,공공용,지하주차장,1954,2638,Y,2020-09-15,서울특별시 구로구 구로2동주민센터,3160000,126.887653,37.494317,190064.9121,543879.3176
464,서울중앙기계부품,서울특별시 구로구 구로동1258,서울특별시 구로구 경인로53길 15,공공용,지하주차장,165290,200352,Y,2020-09-15,서울특별시 구로구 구로2동주민센터,3160000,126.876118,37.502031,189045.9736,544736.7518
465,월드아파트,서울특별시 구로구 구로동1262,서울특별시 구로구 구로중앙로229,공공용,지하주차장,3306,4007,Y,2020-09-15,서울특별시 구로구 구로2동주민센터,3160000,126.875539,37.505317,188995.2943,545101.5043
466,우리유앤미아파트,서울특별시 구로구 구로동1277,서울특별시 구로구 구로동로 43길 10,공공용,지하주차장,5554,6732,Y,2020-09-15,서울특별시 구로구 구로2동주민센터,3160000,126.881809,37.496707,189548.4474,544145.1684
467,구로역중앙하이츠아파트,서울특별시 구로구 구로동1269,서울특별시 구로구 구로동로47길 24,공공용,지하주차장,3845,4652,Y,2020-09-15,서울특별시 구로구 구로2동주민센터,3160000,126.880477,37.499463,189431.0479,544451.2108
468,뉴홍현솔레디움아파트,서울특별시 구로구 구로동1270,서울특별시 구로구 구로동로42길 77,공공용,지하주차장,3109,3109,Y,2020-09-15,서울특별시 구로구 구로2동주민센터,3160000,126.883538,37.498857,189701.6106,544383.6411
469,스위트팰리스,서울특별시 구로구 구로동474-20,서울특별시 구로구 구로동로47길 24-22,공공용,주차장,737,893,Y,2020-09-15,서울특별시 구로구 구로2동주민센터,3160000,126.881326,37.499112,189506.0726,544412.1871
470,대륭포스트타워1차,서울특별시 구로구 구로동182-4,서울특별시 구로구 디지털로34길 27,공공용,주차장,347,288,Y,2020-09-15,서울특별시 구로구 구로3동주민센터,3160000,126.898223,37.485442,190998.5842,542893.2458
471,구로동금호아파트,서울특별시 구로구 구로동 49번지,서울특별시 구로구 공원로 26,공공용,아파트주차장,6082,7359,Y,2020-09-15,서울특별시 구로구 구로5동주민센터,3160000,126.892111,37.499903,190459.8535,544498.8644
472,하늘공원 주차장,서울특별시 구로구 가리봉동 1-11,서울특별시 구로구 벚꽃로 370,공공용,지하주차장,6663,8062,Y,2020-09-15,서울특별시 구로구 가리봉동주민센터,3160000,126.88081,37.487238,189458.7582,543094.3854
473,솔보프라자(항동주민센터),서울특별시 구로구 항동 119-6,서울특별시 구로구 서해안로 2102,공공용,지하주차장,1329,1612,Y,2020-09-15,서울특별시 구로구 항동주민센터,3160000,126.823411,37.480152,184380.9184,542315.9445
474,하버라인2단지,서울특별시 구로구 항동 22-9,서울특별시 구로구 연동로 234,공공용,지하주차장,25813,47108,Y,2020-09-15,서울특별시 구로구 항동주민센터,3160000,126.821973,37.481734,184254.0517,542491.6741
475,하버라인3단지,서울특별시 구로구 항동 171-4,서울특별시 구로구 항동로 43,공공용,지하주차장,153337,279840.025,Y,2020-09-15,서울특별시 구로구 항동주민센터,3160000,126.824699,37.47888,184494.56,542174.5043
476,하버라인4단지,서울특별시 구로구 항동 84,서울특별시 구로구 항동로 72,공공용,지하주차장,15225,27785,Y,2020-09-15,서울특별시 구로구 항동주민센터,3160000,126.826623,37.481241,184665.1858,542436.2346
477,하버라인8단지,서울특별시 구로구 항동 218,서울특별시 구로구 서해안로 2036,공공용,지하주차장,12656,23097,Y,2020-09-15,서울특별시 구로구 항동주민센터,3160000,126.818696,37.475639,183962.9171,541815.8238
478,하버라인9단지,서울특별시 구로구 항동 136-1,서울특별시 구로구 항동로 68,공공용,지하주차장,7848,14322,Y,2020-09-15,서울특별시 구로구 항동주민센터,3160000,126.825889,37.480322,184600.1208,542334.3442
479,하버라인10단지,서울특별시 구로구 항동 135-58,서울특별시 구로구 항동 135-58,공공용,지하주차장,8440,15403,Y,2020-09-15,서울특별시 구로구 항동주민센터,3160000,126.493282,,,
480,하버라인11단지,서울특별시 구로구 항동 184,서울특별시 구로구 연동로 191-5,공공용,지하주차장,7100,12957,Y,2020-09-15,서울특별시 구로구 항동주민센터,3160000,126.822351,37.478061,184286.6715,542084.0143
481,한양수자인,서울특별시 구로구 항동 153,서울특별시 구로구 항동로 42,공공용,지하주차장,26094,47621,Y,2020-09-15,서울특별시 구로구 항동주민센터,3160000,126.82513,37.477928,184532.5125,542068.7739
482,구로우성아파트,서울특별시 구로구 구로동 1058,서울특별시 구로구 구일로8길 31,공공용,주차장,5824,7059,Y,2020-09-15,서울특별시 구로구 구로1동주민센터,3160000,126.872676,37.495173,188740.6092,543975.9542
483,구일우성아파트,서울특별시 구로구 구로동 1259,서울특별시 구로구 구일로2길 60,공공용,주차장,18552,22487,Y,2020-09-15,서울특별시 구로구 구로1동주민센터,3160000,126.877081,37.489758,189129.364,543374.5042
484,영화참마음아파트,서울특별시 구로구 구로동 1268,서울특별시 구로구 구일로8길 79,공공용,주차장,2724,3302,Y,2020-09-15,서울특별시 구로구 구로1동주민센터,3160000,126.874549,37.496742,188906.4112,544149.9738
485,구로1동주민센터,서울특별시 구로구 구로동 685-213,서울특별시 구로구 구일로4길 57,공공용,창고,179,217,Y,2020-09-15,서울특별시 구로구 구로1동주민센터,3160000,126.875775,37.49304,189014.3275,543738.9161
486,구로2동주민센터,서울특별시 구로구 구로동704-12,서울특별시 구로구 구로동로141,공공용,주차장,158,216,Y,2020-09-15,서울특별시 구로구 구로2동주민센터,3160000,126.883314,37.49132,189680.7925,543547.1232
487,구로구청,서울특별시 구로구 구로동435,서울특별시 구로구 가마산로245,공공용,기타,1323,1604,Y,2020-09-15,서울특별시 구로구 구로2동주민센터,3160000,126.888289,37.495511,190121.3211,544011.7947
488,구로2동자치회관,서울특별시 구로구 구로동494-20,서울특별시 구로구 구로동로50길 10,공공용,기타,178,192,Y,2020-09-15,서울특별시 구로구 구로2동주민센터,3160000,126.882911,37.499238,189646.2461,544425.9959
489,구로기계공구상가,서울특별시 구로구 구로동606-1,서울특별시 구로구 구로중앙로197,공공용,지하주차장,1332,1602,Y,2020-09-15,서울특별시 구로구 구로2동주민센터,3160000,126.877905,37.503906,189204.238,544944.694
490,고대구로병원,서울특별시 구로구 구로동80,서울특별시 구로구 구로동로148,공공용,지하주차장,2645,3206,Y,2020-09-15,서울특별시 구로구 구로2동주민센터,3160000,126.884638,37.491181,189797.836,543531.585
491,대림e-편한세상  3차아파트,서울특별시 구로구 신도림동 691,서울특별시 구로구 신도림로 11,공공용,주차장,6108,7403,Y,2020-09-15,서울특별시 구로구 신도림동주민센터,3160000,126.878122,37.507275,189223.9273,545318.5606
492,대림e-편한세상  4차아파트,서울특별시 구로구 신도림동 646,서울특별시 구로구 경인로65길 16-15,공공용,주차장,33058,40070,Y,2020-09-15,서울특별시 구로구 신도림동주민센터,3160000,126.886545,37.509362,189968.9069,545549.2643
493,대림e-편한세상 6차아파트,서울특별시 구로구 신도림동 648,서울특별시 구로구 경인로59길 7,공공용,주차장,3706,4492,Y,2020-09-15,서울특별시 구로구 신도림동주민센터,3160000,126.88264,37.505441,189623.14,545114.4945
494,대림e-편한세상  7차아파트,서울특별시 구로구 신도림동 649,서울특별시 구로구 신도림로 56-13,공공용,주차장,19835,24042,Y,2020-09-15,서울특별시 구로구 신도림동주민센터,3160000,126.882441,37.509077,189606.0763,545518.0738
495,오라모텔(지하),서울특별시 구로구 가리봉동 125-31,서울특별시 구로구 남부순환로105길 94,공공용,기타,221,268,Y,2020-09-15,서울특별시 구로구 가리봉동주민센터,3160000,126.887952,37.480726,190089.5581,542370.8637
496,가리봉교회(지하),서울특별시 구로구 가리봉동 132-86,서울특별시 구로구 우마2길 34,공공용,기타,331,400,Y,2020-09-15,서울특별시 구로구 가리봉동주민센터,3160000,126.889985,37.482255,190269.5716,542540.3504
497,정성요양병원,서울특별시 구로구 가리봉동 137-21,서울특별시 구로구 남부순환로107길 22,공공용,주차장,428,516,Y,2020-09-15,서울특별시 구로구 가리봉동주민센터,3160000,126.894455,37.479368,190664.5943,542219.4447
498,우방아파트,서울특별시 구로구 구로동 642- 46,서울특별시 구로구 구일로 154-17,공공용,주차장,965,1170,Y,2020-09-15,서울특별시 구로구 구로1동주민센터,3160000,126.87437,37.497808,188890.7667,544268.2438
499,현대의보아파트,서울특별시 구로구 구로동 642-33,서울특별시 구로구 구일로8길 121,공공용,주차장,440,533,Y,2020-09-15,서울특별시 구로구 구로1동주민센터,3160000,126.875873,37.497866,189023.7003,544274.4847
500,현대(상선)아파트,서울특별시 구로구 구로동 685-147,서울특별시 구로구 구일로10길 53,공공용,주차장,367,445,Y,2020-09-15,서울특별시 구로구 구로1동주민센터,3160000,126.875023,37.496232,188948.278,544093.2746
501,한국현대아파트,서울특별시 구로구 구로동 642-39,서울특별시 구로구 구일로8길 107,공공용,주차장,450,545,Y,2020-09-15,서울특별시 구로구 구로1동주민센터,3160000,126.875397,37.497835,188981.6041,544271.173
502,AK플라자,서울특별시 구로구 구로동 570번지,서울특별시 구로구 구로중앙로 152,공공용,고층건물,37594,45488,Y,2020-09-15,서울특별시 구로구 구로5동주민센터,3160000,126.882795,37.50116,189636.2543,544639.3414
503,다솜금호아파트,서울특별시 구로구 구로동 43번지 4호,서울특별시 구로구 새말로16길 70,공공용,아파트주차장,5940,7187,Y,2020-09-15,서울특별시 구로구 구로5동주민센터,3160000,126.891957,37.502866,190446.6134,544827.7138
504,신도림전철역,서울특별시 구로구 신도림동 460-26,서울특별시 구로구 새말로 117-21,공공용,지하철역,12925,15666,Y,2020-09-15,서울특별시 구로구 신도림동주민센터,3160000,126.891187,37.509035,190379.329,545512.4944
505,도림천전철역,서울특별시 구로구 신도림동 323-16,서울특별시 구로구 경인로67길 160,공공용,지하철역,1885,2284,Y,2020-09-15,서울특별시 구로구 신도림동주민센터,3160000,126.882703,37.514401,189629.9157,546108.9181
506,신도림동주민센터,서울특별시 구로구 신도림동 390-44,서울특별시 구로구 신도림로 40,공공용,주차장,559,677,Y,2020-09-15,서울특별시 구로구 신도림동주민센터,3160000,126.880595,37.50778,189442.6711,545374.3044
507,현대아파트,서울특별시 구로구 신도림동 641,서울특별시 구로구 신도림로19길 16,공공용,주차장,5950,7212,Y,2020-09-15,서울특별시 구로구 신도림동주민센터,3160000,126.884617,37.511582,189798.7724,545795.8444
508,동아1차아파트,서울특별시 구로구 신도림동 643,서울특별시 구로구 신도림로 87,공공용,주차장,19835,24042,Y,2020-09-15,서울특별시 구로구 신도림동주민센터,3160000,126.882239,37.51096,189588.4604,545727.1041
509,동아2차아파트,서울특별시 구로구 신도림동 644,서울특별시 구로구 경인로 643,공공용,주차장,13223,16027,Y,2020-09-15,서울특별시 구로구 신도림동주민센터,3160000,126.88519,37.509154,189849.0682,545526.2643
510,대림e-편한세상  2차아파트,서울특별시 구로구 신도림동 642,서울특별시 구로구 신도림로 16,공공용,주차장,49587,60105,Y,2020-09-15,서울특별시 구로구 신도림동주민센터,3160000,126.882191,37.505123,189583.3967,545079.2147
511,구로리어린이공원지하주차장,서울특별시 구로구 구로동 139-82,서울특별시 구로구 구로중앙로 13,공공용,주차장,6018,7294,Y,2020-09-15,서울특별시 구로구 구로4동주민센터,3160000,126.891593,37.490417,190412.8365,543446.06
512,구로구민회관,서울특별시 구로구 구로동 102번지,서울특별시 구로구 가마산로25길 21,공공용,자치구,8677,10499,Y,2020-09-15,서울특별시 구로구 구로5동주민센터,3160000,126.889547,37.497104,190232.7657,544188.4402
513,구로5동주민센터,서울특별시 구로구 구로동 109번지 4호,서울특별시 구로구 구로중앙로28길 66,공공용,자치구,661,799,Y,2020-09-15,서울특별시 구로구 구로5동주민센터,3160000,126.889324,37.500103,190213.4374,544521.3258
514,선경오피스텔,서울특별시 구로구 구로동 106번지 4호,서울특별시 구로구 공원로 3,공공용,아파트주차장,3990,4827,Y,2020-09-15,서울특별시 구로구 구로5동주민센터,3160000,126.892248,37.497654,190471.682,544249.2062
515,신도림현대아파트,서울특별시 구로구 구로동 560번지,서울특별시 구로구 새말로9길 45,공공용,아파트주차장,6105,7387,Y,2020-09-15,서울특별시 구로구 구로5동주민센터,3160000,126.886385,37.505182,189954.2092,545085.3347
516,기산프라자,서울특별시 구로구 구로동 731-1,서울특별시 구로구 구로동로26길 8 지하주차장동,공공용,주차장,1025,1240,Y,2020-09-15,서울특별시 구로구 구로4동주민센터,3160000,126.884744,37.490203,189807.1038,543423.0283
517,순영웰라이빌,서울특별시 구로구 구로동 97-2,서울특별시 구로구 가마산로 280,공공용,지하주차장,6445,7812,Y,2020-09-15,서울특별시 구로구 구로4동주민센터,3160000,126.891562,37.496013,190410.8104,544067.1462
518,우진체리쉬,서울특별시 구로구 구로동 97-10,서울특별시 구로구 구로중앙로18길 53,공공용,지하주차장,974,1180,Y,2020-09-15,서울특별시 구로구 구로4동주민센터,3160000,126.891883,37.496118,190439.2099,544078.7549
519,대림오페라타워,서울특별시 구로구 구로동 98,서울특별시 구로구 구로중앙로 60,공공용,지하주차장,3960,4800,Y,2020-09-15,서울특별시 구로구 구로4동주민센터,3160000,126.88941,37.495115,190220.3562,543967.7013
520,남구로역,서울특별시 구로구 구로동 801-95,서울특별시 구로구 도림로 지하 7,공공용,기타,9854,11944,Y,2020-09-15,서울특별시 구로구 구로4동주민센터,3160000,126.887341,37.486162,190036.2381,542974.2346
521,마을공동주차장,서울특별시 구로구 구로동 741-14 마을공동주차장,서울특별시 구로구 구로동로 22길,공공용,주차장,4627,5608,Y,2020-09-15,서울특별시 구로구 구로4동주민센터,3160000,126.531313,37.292331,158441.5167,521558.954
522,하이리빙아파트,서울특별시 구로구 고척동333번지,서울특별시 구로구 고척로 238,공공용,지하주차장,2175,2631,Y,2020-09-15,서울특별시 구로구 고척2동주민센터,3160000,126.859404,37.506125,187568.722,545193.2101
523,청솔우성아파트,서울특별시 구로구 고척동329번지,서울특별시 구로구 중앙로 101,공공용,지하주차장,4136,5004,Y,2020-09-15,서울특별시 구로구 고척2동주민센터,3160000,126.859933,37.506207,187615.5,545202.2413
524,오류1동주민센터,서울특별시 구로구 오류동 31-138,서울특별시 구로구 경인로 221,공공용,동주민센터,179,216,Y,2020-09-15,서울특별시 구로구 오류1동주민센터,3160000,126.845145,37.497021,186306.3295,544184.7619
525,씨티월드,서울특별시 구로구 오류동 44-10,서울특별시 구로구 경인로 176,공공용,주차장,4820,5832,Y,2020-09-15,서울특별시 구로구 오류1동주민센터,3160000,126.841017,37.494314,185940.787,543884.9285
526,동부골든아파트,서울특별시 구로구 오류동 338,서울특별시 구로구 고척로 49,공공용,주차장,2268,2744,Y,2020-09-15,서울특별시 구로구 오류1동주민센터,3160000,126.841369,37.500007,185972.98,544516.7544
527,동부아파트,서울특별시 구로구 오류동 339,서울특별시 구로구 경인로 248-13,공공용,주차장,9686,11720,Y,2020-09-15,서울특별시 구로구 오류1동주민센터,3160000,126.848289,37.497538,186584.4429,544241.664
528,에이스트윈타워1차,서울특별시 구로구 구로동212-1,서울특별시 구로구 디지털로285,공공용,주차장,4322,3579,Y,2020-09-15,서울특별시 구로구 구로3동주민센터,3160000,126.894506,37.484447,190669.7192,542783.1758
529,중소기업은행,서울특별시 구로구 구로동817,서울특별시 구로구 디지털로32길55,공공용,주차장,2529,2094,Y,2020-09-15,서울특별시 구로구 구로3동주민센터,3160000,126.898344,37.483947,191009.0978,542727.309
530,구로종합사회복지관,서울특별시 구로구 구로동256-7,서울특별시 구로구 디지털로31길93,공공용,기타시설,661,548,Y,2020-09-15,서울특별시 구로구 구로3동주민센터,3160000,126.890816,37.486823,190343.6585,543047.2958
531,대동빌라1동,서울특별시 구로구 구로동798-30,서울특별시 구로구 디지털로27길116,공공용,주차장,297,246,Y,2020-09-15,서울특별시 구로구 구로3동주민센터,3160000,126.887992,37.484831,190093.638,542826.4602
532,베다니교회,서울특별시 구로구 구로동144-14,서울특별시 구로구 도림로20길11,공공용,기타시설,1950,1615,Y,2020-09-15,서울특별시 구로구 구로3동주민센터,3160000,126.892275,37.489606,190473.0474,543356.0159
533,이화우성아파트,서울특별시 구로구 구로동1260,서울특별시 구로구 도림로22길8,공공용,주차장,6612,5475,Y,2020-09-15,서울특별시 구로구 구로3동주민센터,3160000,126.893254,37.490149,190559.7316,543416.1043
534,이앤씨벤처드림타워3차,서울특별시 구로구 구로동197-33,서울특별시 구로구 구로구 디지털로31길38-21,공공용,주차장,8474,7017,Y,2020-09-15,서울특별시 구로구 구로3동주민센터,3160000,126.893713,37.486524,190599.8611,543013.7543
535,해피랜드,서울특별시 구로구 구로동197-11,서울특별시 구로구 디지털로31길66,공공용,주차장,2314,1916,Y,2020-09-15,서울특별시 구로구 구로3동주민센터,3160000,126.89236,37.486409,190480.1235,543001.1468
536,광희빌딩,서울특별시 구로구 구로동1126-1,서울특별시 구로구 시흥대로551,공공용,주차장,1653,1369,Y,2020-09-15,서울특별시 구로구 구로3동주민센터,3160000,126.900246,37.482519,191177.1777,542568.6399
537,만민중앙선교원,서울특별시 구로구 구로동235-3,서울특별시 구로구 디지털로26길29,공공용,기타시설,1653,1369,Y,2020-09-15,서울특별시 구로구 구로3동주민센터,3160000,126.894148,37.481481,190637.6686,542454.0746
538,구로4동주민센터,서울특별시 구로구 구로동 317-87,서울특별시 구로구 구로동로28길 94,공공용,기타,132,160,Y,2020-09-15,서울특별시 구로구 구로4동주민센터,3160000,126.889137,37.491537,190195.7821,543570.6183
539,우성상가,서울특별시 구로구 구로동 120,서울특별시 구로구 도림천로 344,공공용,주차장,496,600,Y,2020-09-15,서울특별시 구로구 구로4동주민센터,3160000,126.893908,37.494022,190618.0539,543845.9346
540,로얄프라자,서울특별시 구로구 구로동 97-1,서울특별시 구로구 가마산로 278,공공용,주차장,165,200,Y,2020-09-15,서울특별시 구로구 구로4동주민센터,3160000,126.891283,37.496062,190386.1446,544072.613
541,현대오피스텔,서울특별시 구로구 구로동 98-16,서울특별시 구로구 구로중앙로18길 5 지하주차장동,공공용,주차장,331,400,Y,2020-09-15,서울특별시 구로구 구로4동주민센터,3160000,126.889629,37.494925,190239.7333,543946.6254
542,두산아파트,서울특별시 구로구 구로동 1265,서울특별시 구로구 도림로 59 지하주차장동,공공용,주차장,28100,34000,Y,2020-09-15,서울특별시 구로구 구로4동주민센터,3160000,126.888962,37.489899,190180.0827,543388.8844
543,삼익1단지아파트,서울특별시 구로구 고척동330번지,서울특별시 구로구 중앙로15길 132-17,공공용,지하주차장,4959,6000,Y,2020-09-15,서울특별시 구로구 고척2동주민센터,3160000,126.853315,37.508713,187030.8173,545481.2547
544,삼익2단지아파트,서울특별시 구로구 고척동331번지,서울특별시 구로구 중앙로15길 125,공공용,지하주자창,8264,9999,Y,2020-09-15,서울특별시 구로구 고척2동주민센터,3160000,126.852646,37.507787,186971.5331,545378.6039
545,양우아파트,서울특별시 구로구 고척동328번지,서울특별시 구로구 고척로52길 9,공공용,지하주차장,2975,3599,Y,2020-09-15,서울특별시 구로구 고척2동주민센터,3160000,126.856552,37.504972,187316.3757,545065.6246
546,경남2차아파트,서울특별시 구로구 고척동306번지,서울특별시 구로구 고척로52길 21,공공용,지하주차장,6787,8212,Y,2020-09-15,서울특별시 구로구 고척2동주민센터,3160000,126.857141,37.504702,187368.4182,545035.5766
826,신대방경남아파트,서울특별시 동작구 신대방동 712,서울특별시 동작구 신대방길 85,공공용,,6088,7379,Y,2021-05-31,서울특별시 동작구청,3190000,126.908337,37.490052,191893.6002,543404.004
827,성원상떼빌,서울특별시 동작구 신대방동 719,서울특별시 동작구 신대방1가길 38,공공용,,2368,2870,Y,2021-05-31,서울특별시 동작구청,3190000,126.906938,37.487901,191769.5963,543165.3644
828,동작우체국,서울특별시 동작구 신대방동 361-2,서울특별시 동작구 여의대방로22길 77,공공용,,320,387,Y,2021-05-31,서울특별시 동작구청,3190000,126.924522,37.49792,193325.6034,544276.0042
829,나산스위트,서울특별시 동작구 신대방동 395-68,서울특별시 동작구 보라매로5가길 24,공공용,,3768,4567,Y,2021-05-31,서울특별시 동작구청,3190000,126.923945,37.4907,193274.0037,543474.6142
830,삼성보라매옴니타워,서울특별시 동작구 신대방동 395-62,서울특별시 동작구 보라매로5길 23,공공용,,2833,3433,Y,2021-05-31,서울특별시 동작구청,3190000,126.923609,37.492579,193244.3964,543683.2047
831,농심,서울특별시 동작구 신대방동 370-1,서울특별시 동작구 여의대방로 112,공공용,,7440,9018,Y,2021-05-31,서울특별시 동작구청,3190000,126.918095,37.496835,192757.1988,544156.004
832,시립보라매병원본관,서울특별시 동작구 신대방동 425,서울특별시 동작구 보라매로5길 20,공공용,,5620,6812,Y,2021-05-31,서울특별시 동작구청,3190000,126.924332,37.493015,193308.3998,543731.6043
833,전문건설회관빌딩,서울특별시 동작구 신대방동 395-70,서울특별시 동작구 보라매로5길 15,공공용,,21651,26243,Y,2021-05-31,서울특별시 동작구청,3190000,126.92427,37.492176,193302.7977,543638.4042
834,보라매현대아파트,서울특별시 동작구 신대방동 395-65,서울특별시 동작구 보라매로5길 35,공공용,,14455,17521,Y,2021-05-31,서울특별시 동작구청,3190000,126.92351,37.492089,193235.5972,543628.8038
835,롯데타워,서울특별시 동작구 신대방동 395-67,서울특별시 동작구 보라매로5길 51,공공용,,15670,18993,Y,2021-05-31,서울특별시 동작구청,3190000,126.923271,37.490942,193214.4018,543501.6044
836,은혜교회,서울특별시 동작구 신대방동 352-3,서울특별시 동작구 여의대방로22길 120,공공용,,572,693,Y,2021-05-31,서울특별시 동작구청,3190000,126.926611,37.498001,193510.3982,544284.8047
837,흑석동주민센터,서울특별시 동작구 흑석동 335-2,서울특별시 동작구 흑석한강로 11,공공용,,422,511,Y,2021-05-31,서울특별시 동작구청,3190000,126.966591,37.505779,197046.0043,545146.0044
838,중앙대학교법학관,서울특별시 동작구 흑석동 221,서울특별시 동작구 흑석로 84,공공용,,10138,12288,Y,2021-05-31,서울특별시 동작구청,3190000,126.953834,37.504726,195917.9993,545029.604
839,명수대현대아파트,서울특별시 동작구 흑석동 10,서울특별시 동작구 현충로 119,공공용,,6774,8210,Y,2021-05-31,서울특별시 동작구청,3190000,126.967259,37.508273,197105.1996,545422.8045
840,한강현대아파트,서울특별시 동작구 동작동 216-5,서울특별시 동작구 현충로 151,공공용,,4040,4896,Y,2021-05-31,서울특별시 동작구청,3190000,126.968934,37.506778,197253.1969,545256.804
841,명수대한양아파트,서울특별시 동작구 흑석동 38-58,서울특별시 동작구 현충로10길 42,공공용,,486,589,Y,2021-05-31,서울특별시 동작구청,3190000,126.96656,37.504762,197043.1967,545033.2047
842,청호아파트101동,서울특별시 동작구 흑석동 327,서울특별시 동작구 서달로2길 29,공공용,,723,876,Y,2021-05-31,서울특별시 동작구청,3190000,126.962725,37.501903,196703.9986,544716.0146
843,덕봉개발,서울특별시 동작구 흑석동 97-1,서울특별시 동작구 서달로 166,공공용,,1457,1766,Y,2021-05-31,서울특별시 동작구청,3190000,126.96288,37.507763,196717.9962,545366.4047
844,중앙대학교약대,서울특별시 동작구 흑석동 221,서울특별시 동작구 흑석로 84,공공용,,15812,19166,Y,2021-05-31,서울특별시 동작구청,3190000,126.953834,37.504726,195917.9993,545029.604
845,중앙대학교병원중앙관,서울특별시 동작구 흑석동 224-1,서울특별시 동작구 흑석로 102,공공용,,25870,31357,Y,2021-05-31,서울특별시 동작구청,3190000,126.960422,37.506036,196500.5599,545174.804
846,흑석역 9호선,서울특별시 동작구 흑석동 4,서울특별시 동작구 현충로 지하 90,공공용,,7231,8764,Y,2021-05-31,서울특별시 동작구청,3190000,126.963572,37.509086,196779.2017,545513.2046
847,이수역리가아파트,서울특별시 동작구 사당동 1157,서울특별시 동작구 사당로27길 130,공공용,,23851,28910,Y,2021-05-31,서울특별시 동작구청,3190000,126.97288,37.489829,197601.6032,543375.604
848,중앙대학교(교수연구동),서울특별시 동작구 흑석동 221,서울특별시 동작구 흑석로 84,공공용,,12292,14899,Y,2021-05-31,서울특별시 동작구청,3190000,126.953834,37.504726,195917.9993,545029.604
849,동작문화복지센터,서울특별시 동작구 상도동 176-3,서울특별시 동작구 장승배기로10길 42,공공용,,3400,4121,Y,2021-05-31,서울특별시 동작구청,3190000,126.94109,37.504446,194791.2011,544999.2044
850,동작관악교육지원청,서울특별시 동작구 상도동 175-1,서울특별시 동작구 장승배기로10가길 35,공공용,,470,569,Y,2021-05-31,서울특별시 동작구청,3190000,126.940827,37.502716,194767.77,544807.2143
851,브라운스톤상도아파트,서울특별시 동작구 상도동 527,서울특별시 동작구 상도로31길 19,공공용,,14400,17454,Y,2021-05-31,서울특별시 동작구청,3190000,126.944541,37.506235,195096.4032,545197.6039
852,상도포스코더샵아파트,서울특별시 동작구 상도동 521,서울특별시 동작구 장승배기로4길 9,공공용,,53600,64969,Y,2021-05-31,서울특별시 동작구청,3190000,126.943816,37.501449,195032.0006,544666.4042
853,신대방삼거리역,서울특별시 동작구 대방동 406-10,서울특별시 동작구 상도로 지하 76,공공용,,8727,10578,Y,2021-05-31,서울특별시 동작구청,3190000,126.928225,37.499721,193653.2043,544475.6046
854,상도3동주민센터,서울특별시 동작구 상도동 315-37,서울특별시 동작구 성대로2길 11,공공용,,1046,1267,Y,2021-05-31,서울특별시 동작구청,3190000,126.931405,37.499125,193934.4032,544409.2044
855,쌍용스윗닷홈아파트,서울특별시 동작구 상도동 418,서울특별시 동작구 상도로 107,공공용,,12447,15087,Y,2021-05-31,서울특별시 동작구청,3190000,126.931067,37.502401,193904.799,544772.8044
856,상도2차갑을명가아파트,서울특별시 동작구 상도동 459,서울특별시 동작구 국사봉길 175,공공용,,5515,6684,Y,2021-05-31,서울특별시 동작구청,3190000,126.935097,37.493472,194260.397,543781.6046
857,동아아파트,서울특별시 동작구 상도동 409,서울특별시 동작구 양녕로23길 43,공공용,,1375,1666,Y,2021-05-31,서울특별시 동작구청,3190000,126.940038,37.496181,194697.5986,544082.0039
260,목5동 주민센터,서울특별시 양천구 목동 908-32,서울특별시 양천구 목동서로 41 (목동 목5동주민센터),공공용,주차장,1374,1665,Y,2021-05-20,서울특별시 양천구,3140000,126.881728,37.537184,189546.9321,548637.6029
261,동문굿모닝탑,서울특별시 양천구 신정동 324-10,서울특별시 양천구 목동동로 53 (신정동 동문굿모닝탑Ⅰ),공공용,주차장,10300,12484,Y,2021-05-20,서울특별시 양천구,3140000,126.860894,37.515007,187701.9491,546178.7948
262,해맞이 공영주차장,서울특별시 양천구 신월동 987,서울특별시 양천구 지양로 47 (신월동 신월문화체육센타),공공용,주차장,8386,10164,Y,2021-05-20,서울특별시 양천구,3140000,126.835065,37.519856,185419.398,546720.6338
263,양천구사회적경제지원센터,서울특별시 양천구 목동 907-3,서울특별시 양천구 목동동로 373 (목동 목1지구대),공공용,기타,192,232,Y,2021-05-20,서울특별시 양천구,3140000,126.878464,37.535156,189258.1637,548412.9407
264,가로공원공영주차장,서울특별시 양천구 신월동 263,서울특별시 양천구 가로공원로 지하 133 (신월동 가로공원공영주차장),공공용,주차장,11949,14483,Y,2021-05-20,서울특별시 양천구,3140000,126.830596,37.536213,185027.5987,548536.8048
265,목동힐스테이트,서울특별시 양천구 신정동 1323,서울특별시 양천구 중앙로36길 15 (신정동 목동힐스테이트),공공용,주차장,58752,71214,Y,2021-05-20,서울특별시 양천구,3140000,126.855947,37.520775,187265.6024,546819.6041
266,세양청마루아파트,서울특별시 양천구 신정동 1306,서울특별시 양천구 목동남로2길 60-30(신정동 세양청마루),공공용,주차장,11510,13951,Y,2021-05-20,서울특별시 양천구,3140000,126.863767,37.507842,187954.8023,545383.2044
267,청구아파트,서울특별시 양천구 신정동 336,서울특별시 양천구 신목로2길 11(신정동 청구아파트),공공용,주차장,1471,1783,Y,2021-05-20,서울특별시 양천구,3140000,126.875465,37.519262,188990.7997,546649.2048
268,방주기픈샘2차아파트,서울특별시 양천구 신월동 1047,서울특별시 양천구 중앙로55길 59(신월동 방주기픈샘2차),공공용,주차장,3302,4002,Y,2021-05-20,서울특별시 양천구,3140000,126.842485,37.525598,186076.4,547356.8048
269,은성아파트,서울특별시 양천구 신월동 110-1,서울특별시 양천구 곰달래로5길 30(신월동 은성아파트),공공용,주차장,1086,1316,Y,2021-05-20,서울특별시 양천구,3140000,126.833467,37.532414,185280.6079,548114.7033
270,은일로즈힐아파트,서울특별시 양천구 신월동 1003-4,서울특별시 양천구 신월로 116(신월동),공공용,주차장,1142,1384,Y,2021-05-20,서울특별시 양천구,3140000,126.836836,37.515948,185575.2149,546286.6849
271,수명산동원데쟈뷰아파트,서울특별시 양천구 신월동 1060,서울특별시 양천구 화곡로3길 43(신월동),공공용,주차장,4609,5587,Y,2021-05-20,서울특별시 양천구,3140000,126.828067,37.543605,184805.5874,549357.6276
272,삼익플라주아파트,서울특별시 양천구 신월동 81-10,서울특별시 양천구 가로공원로129(신월동),공공용,주차장,607,736,Y,2021-05-20,서울특별시 양천구,3140000,126.830289,37.536544,185000.5403,548573.5851
273,양천 벽산블루밍1단지,서울특별시 양천구 신월동 1026,서울특별시 양천구 월정로9길 17(신월동),공공용,주차장,5308,6434,Y,2021-05-20,서울특별시 양천구,3140000,126.839297,37.524599,185794.3974,547246.4048
274,양천 벽산블루밍2단지,서울특별시 양천구 신월동 1027,서울특별시 양천구 월정로9길 20(신월동),공공용,주차장,6944,8417,Y,2021-05-20,서울특별시 양천구,3140000,126.838164,37.525267,185694.3983,547320.8039
275,신정이펜하우스3단지,서울특별시 양천구 신정동 1316,서울특별시 양천구 신정이펜1로 50(신정동),공공용,주차장,59099,71635,Y,2021-05-20,서울특별시 양천구,3140000,126.829358,37.513351,184913.5865,545999.5978
276,벽산블루밍1단지,서울특별시 양천구 신월동 1022,서울특별시 양천구 신정로13길 50(신월동),공공용,주차장,5935,7194,Y,2021-05-20,서울특별시 양천구,3140000,126.842048,37.513873,186035.6041,546055.6041
277,벽산블루밍2단지,서울특별시 양천구 신월동 1023,서울특별시 양천구 신정로13길 51(신월동),공공용,주차장,6483,7858,Y,2021-05-20,서울특별시 양천구,3140000,126.841456,37.513339,185983.166,545996.4038
278,목동센트럴아아파크위브1단지,서울특별시 양천구 신월동 1075번지,서울특별시 양천구 남부순환로83길17,공공용,주차장,23571,28571,Y,2021-05-20,서울특별시 양천구,3140000,126.841017,37.516564,185944.98,546354.4043
279,목동센트럴아아파크위브2단지,서울특별시 양천구 신월동 1076번지,서울특별시 양천구 남부순환로83길18,공공용,주차장,36504,44247,Y,2021-05-20,서울특별시 양천구,3140000,126.841915,37.515618,186024.21,546249.3143
280,목동센트럴아아파크위브3단지,서울특별시 양천구 신월동 1077번지,서울특별시 양천구 남부순환로83길48,공공용,주차장,26019,31538,Y,2021-05-20,서울특별시 양천구,3140000,126.846497,37.517408,186429.55,546447.2443
281,목동센트럴아아파크위브4단지,서울특별시 양천구 신월동 1078번지,서울특별시 양천구 남부순환로83길47,공공용,주차장,35124,42575,Y,2021-05-20,서울특별시 양천구,3140000,126.844531,37.518617,186255.96,546581.7743
282,신정뉴타운두산위브아파트,서울특별시 양천구 신월동 1055,서울특별시 양천구 신월로20길 7,공공용,주차장,17455,21158,Y,2021-05-20,서울특별시 양천구,3140000,126.846073,37.519283,186392.47,546655.3843
283,신정뉴타운 롯데캐슬아파트,서울특별시 양천구 신월동 1063,서울특별시 양천구 중앙로29길61,공공용,주차장,38684,46890,Y,2021-05-20,서울특별시 양천구,3140000,126.848125,37.519542,186573.88,546683.8743
284,정목초등학교 지하주차장,서울특별시 양천구 목동 757-1,서울특별시 양천구 목동중앙로3길 30-10 (목동 서울정목초등학교),공공용,주차장,3356,4067,Y,2021-05-20,서울특별시 양천구,3140000,126.870051,37.53653,188514.7995,548566.4044
285,신월문화체육센타,서울특별시 양천구 신월동 987,서울특별시 양천구 지양로 47 (신월동 신월문화체육센타),공공용,주차장,1300,1575,Y,2021-05-20,서울특별시 양천구,3140000,126.835065,37.519856,185419.398,546720.6338
286,디아이빌아파트,서울특별시 양천구 신월동 331-101,서울특별시 양천구 지양로17길 1 (신월동 디아이빌101아파트),공공용,주차장,1035,1254,Y,2021-05-20,서울특별시 양천구,3140000,126.828647,37.523701,184852.8194,547148.4062
287,성산교회,서울특별시 양천구 신월동 51-8,서울특별시 양천구 남부순환로 339 (신월동),공공용,기타,733,888,Y,2021-05-20,서울특별시 양천구,3140000,126.828139,37.536822,184810.5745,548604.8037
288,메디힐병원,서울특별시 양천구 신월동 51-11,서울특별시 양천구 남부순환로 331 (신월동 메디힐병원),공공용,기타,870,1054,Y,2021-05-20,서울특별시 양천구,3140000,126.827842,37.537261,184784.3965,548653.6043
289,수명산태승훼미리아파트,서울특별시 양천구 신월동 18-17,서울특별시 양천구 월정로 262 (신월동),공공용,주차장,1201,1455,Y,2021-05-20,서울특별시 양천구,3140000,126.830915,37.541267,185056.8102,549097.6813
290,아름다운세상아파트,서울특별시 양천구 신월동 1038,서울특별시 양천구 화곡로3길 31 (신월동),공공용,주차장,1067,1293,Y,2021-05-20,서울특별시 양천구,3140000,126.827453,37.542231,184751.0458,549205.2017
291,수명산롯데캐슬아파트,서울특별시 양천구 신월동 1036,서울특별시 양천구 월정로 303 (신월동),공공용,주차장,8184,9920,Y,2021-05-20,서울특별시 양천구,3140000,126.828698,37.545081,184861.6499,549521.3141
292,롯데캐슬아파트(101동 지하),서울특별시 양천구 신정동 1309,서울특별시 양천구 신목로12길 22 (신정동 롯데캐슬),공공용,주차장,15063,18258,Y,2021-05-20,서울특별시 양천구,3140000,126.874573,37.519974,188911.9968,546728.4048
293,신정동아이파크(101~107동 지하),서울특별시 양천구 신정동 1296,서울특별시 양천구 목동동로 180 (신정동 신정동아이파크),공공용,주차장,28984,35132,Y,2021-05-20,서울특별시 양천구,3140000,126.872875,37.521367,188762.1169,546883.2019
294,명지해드는터(101동 지하),서울특별시 양천구 신정동 1300,서울특별시 양천구 신목로 43 (신정동 명지해드는터),공공용,주차장,2938,3561,Y,2021-05-20,서울특별시 양천구,3140000,126.872665,37.519165,188743.2043,546638.8048
295,신정3동 e편한세상아파트,서울특별시 양천구 신정동 1303,서울특별시 양천구 신정로13길 38 (신정동 신정이편한세상아파트),공공용,주차장,17575,21303,Y,2021-05-20,서울특별시 양천구,3140000,126.842389,37.512919,186065.5741,545949.5917
296,신목동 샤르망 오피스텔,서울특별시 양천구 신월동 235-7,서울특별시 양천구 월정로 101 (신월동 신목동샤르망오피스텔),공공용,주차장,3128,3791,Y,2021-05-20,서울특별시 양천구,3140000,126.838958,37.528451,185765.1895,547674.0093
297,신월 보람쉬움6차아파트,서울특별시 양천구 신월동 125,서울특별시 양천구 곰달래로7길 7 (신월동 신월6차보람아파트),공공용,주차장,3404,4126,Y,2021-05-20,서울특별시 양천구,3140000,126.834845,37.530406,185401.9966,547891.6041
298,신월 나산아파트,서울특별시 양천구 신월동 217-2,서울특별시 양천구 남부순환로65길 6 (신월동 나산아파트),공공용,주차장,3070,3721,Y,2021-05-20,서울특별시 양천구,3140000,126.834412,37.527454,185363.2,547564.0045
299,명지해드는터(102동 지하),서울특별시 양천구 신정동 1300,서울특별시 양천구 신목로 43 (신정동 명지해드는터),공공용,주차장,2938,3561,Y,2021-05-20,서울특별시 양천구,3140000,126.872665,37.519165,188743.2043,546638.8048
300,신월대성유니드아파트 103동,서울특별시 양천구 신월동 1034,서울특별시 양천구 신월로15길 21 (신월동 신월대성유니드아파트),공공용,주차장,5763,6985,Y,2021-05-20,서울특별시 양천구,3140000,126.84113,37.520168,185955.5977,546754.4047
301,목동2차성원아파트 101동,서울특별시 양천구 목동 709-2,서울특별시 양천구 목동중앙남로 100 (목동 성원아파트),공공용,주차장,8000,9696,Y,2021-05-20,서울특별시 양천구,3140000,126.86374,37.542779,187957.9967,549260.8048
302,목동2차성원아파트 103동,서울특별시 양천구 목동 709-2,서울특별시 양천구 목동중앙남로 100 (목동 성원아파트),공공용,주차장,4000,4848,Y,2021-05-20,서울특별시 양천구,3140000,126.86374,37.542779,187957.9967,549260.8048
303,목동2차성원아파트 104동,서울특별시 양천구 목동 709-2,서울특별시 양천구 목동중앙남로 100 (목동 성원아파트),공공용,주차장,4000,4848,Y,2021-05-20,서울특별시 양천구,3140000,126.86374,37.542779,187957.9967,549260.8048
304,목동롯데캐슬위너아파트,서울특별시 양천구 목동 956,서울특별시 양천구 목동중앙북로 38 (목동 롯데캐슬위너아파트),공공용,주차장,45544,55204,Y,2021-05-20,서울특별시 양천구,3140000,126.866953,37.547904,188242.8036,549829.2048
305,목3동주민센터,서울특별시 양천구 목동 642-1,서울특별시 양천구 목동중앙남로16나길 55 (목동 목3동주민센터),공공용,기타,265,321,Y,2021-05-20,서울특별시 양천구,3140000,126.864461,37.544783,188022.0622,549483.1126
306,목동신한아파트,서울특별시 양천구 목동 960,서울특별시 양천구 목동중앙북로 7 (목동 신한이모르젠),공공용,주차장,8590,10412,Y,2021-05-20,서울특별시 양천구,3140000,126.864475,37.549022,188023.9776,549953.6045
307,양천구청,서울특별시 양천구 신정동 321-4,서울특별시 양천구 목동동로 105 (신정동),공공용,주차장,3855,4672,Y,2021-05-20,서울특별시 양천구,3140000,126.866542,37.517075,188201.602,546407.6046
308,양천구청 해누리타운,서울특별시 양천구 신정동 322-11,서울특별시 양천구 목동동로 81 (신정동),공공용,주차장,4593,5567,Y,2021-05-20,서울특별시 양천구,3140000,126.863825,37.515975,187961.2279,546285.8604
309,신서공영주차장(신서고등학교),서울특별시 양천구 신정동 984-1,서울특별시 양천구 은행정로 42 (신정동 신서고등학교),공공용,주차장,9544,11568,Y,2021-05-20,서울특별시 양천구,3140000,126.860208,37.523915,187642.7971,547167.6045
310,신정3동주민센터,서울특별시 양천구 신정동 1263,서울특별시 양천구 중앙로 209 (신정동 신정3동주민센터),공공용,주차장,570,690,Y,2021-05-20,서울특별시 양천구,3140000,126.854764,37.515156,187160.0348,546196.1597
311,신정4동통합청사(지하),서울특별시 양천구 신정동 949-5,서울특별시 양천구 오목로34길 5 (신정동 신정4동통합청사),공공용,주차장,443,536,Y,2021-05-20,서울특별시 양천구,3140000,126.855803,37.524581,187253.4937,547242.0756
312,신월2동주민센터,서울특별시 양천구 신월동 483-11,서울특별시 양천구 중앙로53길 47 (신월동 신월2동주민센터),공공용,주차장,426,516,Y,2021-05-20,서울특별시 양천구,3140000,126.844597,37.524975,186262.9944,547287.3822
313,대주파크빌,서울특별시 양천구 신월동 1028,서울특별시 양천구 남부순환로85길 16 (신월동 대주파크빌),공공용,주차장,4705,5703,Y,2021-05-20,서울특별시 양천구,3140000,126.842847,37.514577,186106.4,546133.6043
314,이스타빌(3차) 빌딩,서울특별시 양천구 신정동 323-9,서울특별시 양천구 목동서로 377 (신정동),공공용,주차장,10307,12493,Y,2021-05-20,서울특별시 양천구,3140000,126.862349,37.516115,187830.7625,546301.5996
315,목동두산위브,서울특별시 양천구 목동 953,서울특별시 양천구 목동중앙본로 85 (목동 두산위브아파트),공공용,주차장,8428,10215,Y,2021-05-20,서울특별시 양천구,3140000,126.869831,37.543258,188496.398,549313.1854
316,건영아파트,서울특별시 양천구 목동 928,서울특별시 양천구 목동중앙본로22길 63 (목동 건영아파트),공공용,주차장,9402,11396,Y,2021-05-20,서울특별시 양천구,3140000,126.872962,37.541488,188772.7977,549116.4039
317,동일하이빌 아파트(지하주차장),서울특별시 양천구 신정동 1310,서울특별시 양천구 신정로11길 20 (신정동 동일하이빌아파트),공공용,주차장,29907,36250,Y,2021-05-20,서울특별시 양천구,3140000,126.838704,37.511962,185739.6002,545844.0043
318,센트럴프라자,서울특별시 양천구 신정동 321-6,서울특별시 양천구 목동서로 349 (신정동 센트럴프라자),공공용,주차장,16464,19956,Y,2021-05-20,서울특별시 양천구,3140000,126.865319,37.517403,188093.5344,546444.1603
319,목동 대원 칸타빌(201202),서울특별시 양천구 목동 941,서울특별시 양천구 목동중앙로 11 (목동),공공용,주차장,6508,7888,Y,2021-05-20,서울특별시 양천구,3140000,126.866936,37.532292,188238.7963,548096.4044
320,목동금호어울림(101~106),서울특별시 양천구 목동 951,서울특별시 양천구 목동중앙서로 37 (목동),공공용,주차장,17878,21670,Y,2021-05-20,서울특별시 양천구,3140000,126.869083,37.533581,188428.7985,548239.2046
321,목동 대원 칸타빌(203 204동),서울특별시 양천구 목동 941,서울특별시 양천구 목동중앙로 11 (목동 대원칸타빌2단지아파트),공공용,주차장,6508,7888,Y,2021-05-20,서울특별시 양천구,3140000,126.866936,37.532292,188238.7963,548096.4044
322,목동 대원 칸타빌(205동),서울특별시 양천구 목동 941,서울특별시 양천구 목동중앙로 11 (목동 대원칸타빌2단지아파트),공공용,주차장,3254,3944,Y,2021-05-20,서울특별시 양천구,3140000,126.866936,37.532292,188238.7963,548096.4044
323,목동금호어울림(107동),서울특별시 양천구 목동 951,서울특별시 양천구 목동중앙서로 37 (목동),공공용,주차장,2980,3612,Y,2021-05-20,서울특별시 양천구,3140000,126.869083,37.533581,188428.7985,548239.2046
324,신월5동복합청사,서울특별시 양천구 신월동 52-2,서울특별시 양천구 화곡로4길 10 (신월동),공공용,주차장,957,1160,Y,2021-05-20,서울특별시 양천구,3140000,126.827189,37.538526,184726.959,548794.062
325,신월청소년문화센터,서울특별시 양천구 신월동 150-3,서울특별시 양천구 가로공원로 86 (신월동 신월청소년문화센터),공공용,기타,242,293,Y,2021-05-20,서울특별시 양천구,3140000,126.825481,37.535222,184575.3076,548427.6369
326,구립 파란들어린이집,서울특별시 양천구 신월동 48-12,서울특별시 양천구 가로공원로 85 (신월동),공공용,기타,124,150,Y,2021-05-20,서울특별시 양천구,3140000,126.825372,37.535661,184565.7818,548476.3785
327,구립 신월노인복지센터,서울특별시 양천구 신월동 49-11,서울특별시 양천구 가로공원로 101 (신월동),공공용,기타,132,160,Y,2021-05-20,서울특별시 양천구,3140000,126.827219,37.535931,184729.0811,548506.007
328,신월대림아파트,서울특별시 양천구 신월동 491-1,서울특별시 양천구 오목로13길 7 (신월동 신월대림아파트),공공용,주차장,1761,2134,Y,2021-05-20,서울특별시 양천구,3140000,126.845146,37.52319,186311.1978,547089.2037
329,태진아파트,서울특별시 양천구 신월동 467-3,서울특별시 양천구 중앙로55길 25 (신월동 태진아파트),공공용,주차장,3200,3878,Y,2021-05-20,서울특별시 양천구,3140000,126.84671,37.526175,186450.0012,547420.2609
330,신도신월1차(아),서울특별시 양천구 신월동 1029,서울특별시 양천구 신월로20길 33 (신월동 신도신월1차아파트),공공용,주차장,1900,2303,Y,2021-05-20,서울특별시 양천구,3140000,126.846125,37.518189,186396.7963,546534.0043
331,금하뜨라네아파트,서울특별시 양천구 신월동 142-14,서울특별시 양천구 가로공원로56길 10 (신월동),공공용,주차장,5894,7144,Y,2021-05-20,서울특별시 양천구,3140000,126.823428,37.534506,184393.7237,548348.5083
332,금강아파트,서울특별시 양천구 신월동 207-24,서울특별시 양천구 남부순환로64길 23 (신월동),공공용,주차장,4452,5396,Y,2021-05-20,서울특별시 양천구,3140000,126.833616,37.526932,185292.6925,547506.2742
333,수명아파트,서울특별시 양천구 신월동 12-4,서울특별시 양천구 화곡로3길 15 (신월동),공공용,주차장,1182,1432,Y,2021-05-20,서울특별시 양천구,3140000,126.827053,37.540908,184715.4254,549058.4052
334,양천아파트(101~102),서울특별시 양천구 신정동 276,서울특별시 양천구 목동로3길 57 (신정동),공공용,주차장,3537,4287,Y,2021-05-20,서울특별시 양천구,3140000,126.862164,37.509454,187813.342,545562.3545
335,목동2차우성아파트,서울특별시 양천구 신정동 337-2,서울특별시 양천구 목동남로4길 6-46 (신정동),공공용,주차장,10581,12825,Y,2021-05-20,서울특별시 양천구,3140000,126.864769,37.506571,188043.2015,545242.004
336,메리트윈(지하주차장),서울특별시 양천구 신정동 282-2,서울특별시 양천구 목동동로8길 23 (신정동 메리트원),공공용,주차장,817,990,Y,2021-05-20,서울특별시 양천구,3140000,126.871488,37.516878,188638.8074,546385.1291
337,양천롯데캐슬아파트,서울특별시 양천구 신월동 1057,서울특별시 양천구 오목로5길 19 (신월동 양천롯데캐슬),공공용,주차장,14864,18016,Y,2021-05-20,서울특별시 양천구,3140000,126.839967,37.523522,185853.4463,547126.8034
338,삼정그린뷰아파트,서울특별시 양천구 신월동 1041,서울특별시 양천구 오목로3길 17 (신월동),공공용,주차장,6473,7846,Y,2021-05-20,서울특별시 양천구,3140000,126.838287,37.522837,185704.8162,547051.0742
339,신월대성유니드아파트 101동,서울특별시 양천구 신월동 1033,서울특별시 양천구 신월로15길 25 (신월동 신월대성유니드아파트),공공용,주차장,2292,2778,Y,2021-05-20,서울특별시 양천구,3140000,126.840952,37.520582,185940.0018,546800.4044
340,양천아파트(103~105),서울특별시 양천구 신정동 276,서울특별시 양천구 목동로3길 57 (신정동 양천아파트),공공용,주차장,3537,4287,Y,2021-05-20,서울특별시 양천구,3140000,126.862163,37.509455,187813.2006,545562.4046
341,양천아파트(106~108),서울특별시 양천구 신정동 276,서울특별시 양천구 목동로3길 57 (신정동 양천아파트),공공용,주차장,3537,4287,Y,2021-05-20,서울특별시 양천구,3140000,126.862163,37.509455,187813.2006,545562.4046
342,신목동역,서울특별시 양천구 목동 136-2,서울특별시 양천구 목동중앙로 지하 217 (목동 신목동역),공공용,기타,6926,8395,Y,2021-05-20,서울특별시 양천구,3140000,126.882747,37.544483,189638.0032,549447.6438
343,양천구민체육센터,서울특별시 양천구 신정동 322-10,서울특별시 양천구 목동동로 87 (신정동 양천구민체육센터),공공용,주차장,4393,5324,Y,2021-05-20,서울특별시 양천구,3140000,126.864412,37.516478,188013.2031,546341.6043
344,목동8단지아파트(B상가동),서울특별시 양천구 신정동 314,서울특별시 양천구 목동서로 280 (신정동 목동신시가지아파트8단지),공공용,기타,2109,2556,Y,2021-05-20,서울특별시 양천구,3140000,126.867564,37.522342,188292.8017,546992.0047
345,목동14단지아파트(C상가동),서울특별시 양천구 신정동 329,서울특별시 양천구 목동동로 130 (신정동 목동신시가지아파트14단지),공공용,기타,2726,3304,Y,2021-05-20,서울특별시 양천구,3140000,126.871238,37.514999,188616.4029,546176.614
346,양천세무서,서울특별시 양천구 신정동 319-12,서울특별시 양천구 목동동로 165 (신정동 양천세무서),공공용,기타,597,723,Y,2021-05-20,서울특별시 양천구,3140000,126.869942,37.520536,188502.7113,546791.309
347,양천문화회관,서울특별시 양천구 신정동 322,서울특별시 양천구 목동서로 367 (신정동 양천문화회관),공공용,주차장,7121,8631,Y,2021-05-20,서울특별시 양천구,3140000,126.86334,37.51652,187918.4032,546346.4041
348,목동고등학교,서울특별시 양천구 신정동 325-8,서울특별시 양천구 목동동로2길 68 (신정동),공공용,주차장,1963,2379,Y,2021-05-20,서울특별시 양천구,3140000,126.860198,37.509216,187639.4977,545536.1648
349,양천구청역,서울특별시 양천구 신정동 276-7,서울특별시 양천구 목동로3길 지하 33 (신정동),공공용,기타,2770,3357,Y,2021-05-20,서울특별시 양천구,3140000,126.866075,37.512699,188159.6254,545922.0035
350,현대백화점(목동점),서울특별시 양천구 목동 916,서울특별시 양천구 목동동로 257 (목동 현대하이페리온),공공용,주차장,12375,15000,Y,2021-05-20,서울특별시 양천구,3140000,126.874692,37.527197,188923.6022,547530.0039
351,금호베스트빌,서울특별시 양천구 목동 549,서울특별시 양천구 목동중앙북로8길 111 (목동 금호베스트빌아파트),공공용,주차장,19144,23204,Y,2021-05-20,서울특별시 양천구,3140000,126.868367,37.546226,188367.4701,549642.8011
352,신트리1단지아파트,서울특별시 양천구 신정동 1259,서울특별시 양천구 신정로 293 (신정동 신트리1단지아파트),공공용,주차장,3974,4816,Y,2021-05-20,서울특별시 양천구,3140000,126.855041,37.514312,187184.397,546102.4041
353,서울가든아파트 (지하),서울특별시 양천구 신월동 475,서울특별시 양천구 중앙로53길 5 (신월동 서울가든아파트),공공용,주차장,1990,2412,Y,2021-05-20,서울특별시 양천구,3140000,126.849087,37.525812,186659.9976,547379.6038
354,행복한세상 백화점,서울특별시 양천구 목동 917-6,서울특별시 양천구 목동동로 309 (목동 행복한세상),공공용,주차장,20798,25209,Y,2021-05-20,서울특별시 양천구,3140000,126.87601,37.529158,189040.4005,547747.5196
355,법안정사(지하),서울특별시 양천구 목동 907-2,서울특별시 양천구 목동동로 371 (목동),공공용,기타,641,776,Y,2021-05-20,서울특별시 양천구,3140000,126.878493,37.535476,189260.7991,548448.4046
356,신안파크아파트,서울특별시 양천구 신월동 350-2,서울특별시 양천구 지양로15길 20 (신월동 신안파크아파트),공공용,주차장,5755,6975,Y,2021-05-20,서울특별시 양천구,3140000,126.829253,37.523974,184906.3991,547178.604
357,목동삼성아파트(101~102동 지하),서울특별시 양천구 신정동 1278,서울특별시 양천구 신목로 7 (신정동 목동삼성아파트),공공용,주차장,4954,6004,Y,2021-05-20,서울특별시 양천구,3140000,126.876461,37.515078,189078.2038,546184.7995
358,목동삼성아파트(103~104동 지하),서울특별시 양천구 신정동 1278,서울특별시 양천구 신목로 7 (신정동 목동삼성아파트),공공용,주차장,4954,6004,Y,2021-05-20,서울특별시 양천구,3140000,126.876467,37.515078,189078.7343,546184.7988
359,동화목동프라자,서울특별시 양천구 신정동 1022-9,서울특별시 양천구 중앙로32길 55 (신정동),공공용,주차장,2364,2865,Y,2021-05-20,서울특별시 양천구,3140000,126.859451,37.519883,187575.2028,546720.168
360,신정네거리역,서울특별시 양천구 신정동 1231,서울특별시 양천구 중앙로 지하 261 (신정동 신정네거리역),공공용,기타,2077,2517,Y,2021-05-20,서울특별시 양천구,3140000,126.852997,37.519798,187004.6235,546711.6039
361,신정역,서울특별시 양천구 신정동 1090,서울특별시 양천구 오목로 지하 179 (신정동 신정역),공공용,기타,6413,7773,Y,2021-05-20,서울특별시 양천구,3140000,126.857289,37.525217,187384.958,547312.4634
362,석정빌딩,서울특별시 양천구 신정동 945-4,서울특별시 양천구 오목로 142 (신정동),공공용,주차장,109,132,Y,2021-05-20,서울특별시 양천구,3140000,126.85314,37.524437,187018.0422,547226.4043
363,양동초등학교,서울특별시 양천구 신정동 941,서울특별시 양천구 오목로23길 24 (신정동 서울양동초등학교),공공용,주차장,10144,12295,Y,2021-05-20,서울특별시 양천구,3140000,126.851267,37.525853,186852.7503,547383.8762
364,미광아파트,서울특별시 양천구 신정동 881-16,서울특별시 양천구 은행정로 98 (신정동 미광아파트),공공용,주차장,516,625,Y,2021-05-20,서울특별시 양천구,3140000,126.858789,37.528491,187518.0971,547675.6046
365,양천경찰서,서울특별시 양천구 신정동 321,서울특별시 양천구 목동동로 99 (신정동 서울양천경찰서),공공용,기타,1833,2221,Y,2021-05-20,서울특별시 양천구,3140000,126.865593,37.516678,188117.5981,546363.6043
366,신정6동주민센터,서울특별시 양천구 신정동 322-9,서울특별시 양천구 목동서로 353 (신정동 신정6동주민센터),공공용,주차장,201,243,Y,2021-05-20,서울특별시 양천구,3140000,126.864397,37.517078,188011.973,546408.2065
142,국민은행 명일동지점,서울특별시 강동구 명일동 306번지 1호,서울특별시 강동구 양재대로 1661 (명일동),공공용,공공시설,1387,1681,Y,2021-08-06,강동구청,3240000,127.143942,37.553857,212718.9825,550491.374
143,주양쇼핑센터,서울특별시 강동구 명일동 48번지,서울특별시 강동구 고덕로62길 55 (명일동),공공용,공공시설,8587,10408,Y,2021-08-06,강동구청,3240000,127.153454,37.552394,213559.7644,550330.2924
144,한일빌딩,서울특별시 강동구 성내동 48번지 1호,서울특별시 강동구 천호대로 1016 (성내동),공공용,공공시설,3960,4800,Y,2021-08-06,강동구청,3240000,127.124801,37.537796,211030.0037,548706.2942
145,일성하이츠오피스텔,서울특별시 강동구 길동 454번지 1호,서울특별시 강동구 천호대로 1121 (길동 일성하이츠오피스텔),공공용,공공시설,1840,2230,Y,2021-08-06,강동구청,3240000,127.136359,37.535214,212051.917,548421.1244
146,라이프아파트(전동지하),서울특별시 강동구 둔촌동 544번지,서울특별시 강동구 풍성로65길 29 (둔촌동),공공용,공공시설,660,800,Y,2021-08-06,강동구청,3240000,127.139585,37.52957,212337.991,547795.1912
147,명일역,서울특별시 강동구 명일동 312번지,서울특별시 강동구 양재대로 지하 1632 (명일동 명일역),공공용,공공시설,3474,4210,Y,2021-08-06,강동구청,3240000,127.144006,37.551263,212725.0435,550203.4151
148,굽은다리역,서울특별시 강동구 명일동 345번지 12호,서울특별시 강동구 양재대로 지하 1572 (명일동 굽은다리역),공공용,공공시설,3227,3911,Y,2021-08-06,강동구청,3240000,127.142971,37.545732,212634.5545,549589.4051
149,sk네트웍스,서울특별시 강동구 성내동 448번지 3호,서울특별시 강동구 강동대로 195 (성내동 뉴타임빌딩),공공용,공공시설,1651,2001,Y,2021-08-06,강동구청,3240000,127.12827,37.5244,211338.6248,547219.9345
150,성내1동주민센터,서울특별시 강동구 성내동 539번지 1호,서울특별시 강동구 성내로 13 (성내동 성내1동주민센터),공공용,공공시설,396,480,Y,2021-08-06,강동구청,3240000,127.122463,37.53048,210824.4176,547894.0506
151,화영빌딩(우리홈마트),서울특별시 강동구 성내동 430번지 12호,서울특별시 강동구 강동대로53길 80 (성내동),공공용,공공시설,677,820,Y,2021-08-06,강동구청,3240000,127.132932,37.52625,211750.4578,547425.8459
152,힐탑오피스텔,서울특별시 강동구 천호동 449번지 49호,서울특별시 강동구 천호대로 1073 (천호동),공공용,공공시설,5271,6389,Y,2021-08-06,강동구청,3240000,127.131342,37.536564,211608.2941,548570.4256
153,암사1동자치회관,서울특별시 강동구 암사동 474번지 6호,서울특별시 강동구 고덕로24길 49 (암사동),공공용,공공시설,443,536,Y,2021-08-06,강동구청,3240000,127.13572,37.552383,211992.6714,550326.6457
154,유원아파트,서울특별시 강동구 천호동 287번지 9호,서울특별시 강동구 상암로12길 24 (천호동),공공용,공공시설,4987,6044,Y,2021-08-06,강동구청,3240000,127.127856,37.548775,211298.4034,549925.189
155,고덕전철역,서울특별시 강동구 고덕동 310번지,서울특별시 강동구 고덕로 지하 253 (고덕동),공공용,공공시설,4418,5355,Y,2021-08-06,강동구청,3240000,127.153951,37.555047,213603.1989,550624.8047
156,현대아파트(전동 지하주차장),서울특별시 강동구 고덕동 312번지,서울특별시 강동구 고덕로61길 37 (고덕동 현대아파트),공공용,공공시설,11780,14278,Y,2021-08-06,강동구청,3240000,127.151956,37.556754,213426.6134,550813.917
157,길동지하철역,서울특별시 강동구 길동 378번지,서울특별시 강동구 양재대로 지하 1480 (길동 길동역),공공용,공공시설,1752,2123,Y,2021-08-06,강동구청,3240000,127.139995,37.537808,212372.879,548709.5556
158,KT&amp;G강동지사(담배인삼공사),서울특별시 강동구 길동 335번지 5호,서울특별시 강동구 양재대로 1544 (길동),공공용,공공시설,1945,2357,Y,2021-08-06,강동구청,3240000,127.142485,37.543419,212591.9949,549332.6747
159,신성통상,서울특별시 강동구 둔촌동 444번지,서울특별시 강동구 풍성로63길 84 (둔촌동),공공용,공공시설,8566,10383,Y,2021-08-06,강동구청,3240000,127.140314,37.531719,212402.0542,548033.8119
160,하이츠아파트(전동지하),서울특별시 강동구 둔촌동 545번지,서울특별시 강동구 명일로 113 (둔촌동),공공용,공공시설,736,892,Y,2021-08-06,강동구청,3240000,127.142182,37.529196,212567.6043,547754.0046
161,둔촌동역,서울특별시 강동구 둔촌동 416번지,서울특별시 강동구 양재대로 지하 1369 (둔촌동 둔촌역),공공용,공공시설,2722,3299,Y,2021-08-06,강동구청,3240000,127.136372,37.528131,212054.2588,547635.0878
162,다성빌딩,서울특별시 강동구 성내동 448번지 8호,서울특별시 강동구 강동대로 199 (성내동 다성빌딩),공공용,공공시설,2204,2672,Y,2021-08-06,강동구청,3240000,127.128697,37.524219,211376.3977,547199.8618
163,서경빌딩,서울특별시 강동구 성내동 539번지 3호,서울특별시 강동구 성내로 19 (성내동 (주)서경산업개발),공공용,공공시설,1488,1804,Y,2021-08-06,강동구청,3240000,127.122826,37.530356,210856.5651,547880.3911
164,강동메가박스,서울특별시 강동구 성내동 549번지 1호,서울특별시 강동구 성내로 48 (성내동 씨네월드),공공용,공공시설,2639,3199,Y,2021-08-06,강동구청,3240000,127.12536,37.528447,211080.827,547668.7557
165,동방아파트,서울특별시 강동구 성내동 407번지 2호,서울특별시 강동구 양재대로95길 74 (성내동),공공용,공공시설,991,1201,Y,2021-08-06,강동구청,3240000,127.133076,37.531378,211762.4167,547995.0176
166,지하철 천호역,서울특별시 강동구 천호동 455번지,서울특별시 강동구 천호대로 지하 997 (천호동 천호역),공공용,공공시설,13185,15981,Y,2021-08-06,강동구청,3240000,127.123737,37.538581,210935.8783,548793.3032
167,지하철 강동역,서울특별시 강동구 천호동 447번지,서울특별시 강동구 천호대로 지하 1097 (천호동),공공용,공공시설,9409,11404,Y,2021-08-06,강동구청,3240000,127.133532,37.53552,211801.9984,548454.8047
168,제일아파트,서울특별시 강동구 천호동 361번지 1호,서울특별시 강동구 천중로12길 17 (천호동),공공용,공공시설,1349,1635,Y,2021-08-06,강동구청,3240000,127.127517,37.544412,211269.024,549440.891
169,상일동역,서울특별시 강동구 상일동 148번지,서울특별시 강동구 고덕로 지하 359 (상일동),공공용,공공시설,7701,9334,Y,2021-08-06,강동구청,3240000,127.165833,37.556663,214652.8006,550805.9431
170,현대4차아파트(전동지하),서울특별시 강동구 둔촌동 89번지,서울특별시 강동구 진황도로61길 7 (둔촌동),공공용,공공시설,3207,3887,Y,2021-08-06,강동구청,3240000,127.143825,37.529402,212712.8047,547777.0911
171,강동구의회,서울특별시 강동구 성내동 541번지 1호,서울특별시 강동구 성내로 55 (성내동 강동구의회의사당),공공용,공공시설,1935,2345,Y,2021-08-06,강동구청,3240000,127.126365,37.528635,211169.6153,547689.7003
172,삼성아파트(전동지하),서울특별시 강동구 천호동 528번지,서울특별시 강동구 성안로25길 6 (천호동),공공용,공공시설,11126,13486,Y,2021-08-06,강동구청,3240000,127.134796,37.538302,211913.2639,548763.68
173,길동동아아파트(전동지하),서울특별시 강동구 둔촌동 621번지,서울특별시 강동구 동남로49길 60-5 (둔촌동),공공용,공공시설,2913,3530,Y,2021-08-06,강동구청,3240000,127.146125,37.533059,212915.5084,548183.2755
174,현대모터프라자,서울특별시 강동구 성내동 192번지 3호,서울특별시 강동구 천호대로 1096 (성내동),공공용,공공시설,1859,2253,Y,2021-08-06,강동구청,3240000,127.133236,37.5352,211775.9138,548419.1938
175,동아1차아파트,서울특별시 강동구 성내동 419번지 13호,서울특별시 강동구 풍성로54길 12-11 (성내동),공공용,공공시설,3960,4800,Y,2021-08-06,강동구청,3240000,127.132959,37.528801,211752.4089,547708.9365
176,현대백화점,서울특별시 강동구 천호동 455번지 8호,서울특별시 강동구 천호대로 1005 (천호동),공공용,공공시설,22303,27033,Y,2021-08-06,강동구청,3240000,127.124445,37.538973,210998.4201,548836.9708
177,삼익아파트(전동지하),서울특별시 강동구 천호동 288번지 5호,서울특별시 강동구 상암로12길 13 (천호동),공공용,공공시설,6750,8181,Y,2021-08-06,강동구청,3240000,127.128449,37.548554,211350.8037,549900.8042
178,동아코아아파트(2001아웃렛),서울특별시 강동구 천호동 563번지,서울특별시 강동구 구천면로 189 (천호동),공공용,공공시설,19754,23944,Y,2021-08-06,강동구청,3240000,127.125536,37.541591,211094.4013,549127.604
179,강동웨딩문화센터,서울특별시 강동구 성내동 199번지,서울특별시 강동구 천호대로 1102 (성내동),공공용,공공시설,6764,8198,Y,2021-08-06,강동구청,3240000,127.133682,37.534779,211815.4081,548372.6094
180,둔촌역 청구아파트,서울특별시 강동구 성내동 419번지 1호,서울특별시 강동구 풍성로 194 (성내동),공공용,공공시설,5608,6797,Y,2021-08-06,강동구청,3240000,127.133357,37.529605,211787.5064,547798.2682
181,천호역지하환승주차장,서울특별시 강동구 천호동 452번지,서울특별시 강동구 천호대로 1045 (천호동),공공용,공공시설,49493,59991,Y,2021-08-06,강동구청,3240000,127.128435,37.53748,211351.2012,548671.7033
182,현대타워,서울특별시 강동구 천호동 565번지,서울특별시 강동구 천호대로 1095 (천호동),공공용,공공시설,4356,5280,Y,2021-08-06,강동구청,3240000,127.133664,37.535942,211813.5985,548501.6037
183,길동 신동아4차아파트,서울특별시 강동구 길동 92번지,서울특별시 강동구 명일로 260 (길동 신동아아파트),공공용,공공시설,2353,2852,Y,2021-08-06,강동구청,3240000,127.1474,37.541133,213026.7965,549079.6037
184,강동구청역,서울특별시 강동구 성내동 319번지,서울특별시 강동구 올림픽로 지하 550 (성내동 강동구청역),공공용,공공시설,5601,6789,Y,2021-08-06,강동구청,3240000,127.120571,37.530673,210657.1748,547915.2763
185,암사역,서울특별시 강동구 암사동 501번지,서울특별시 강동구 올림픽로 지하 776 (암사동),공공용,공공시설,4878,5912,Y,2021-08-06,강동구청,3240000,127.127542,37.550141,211270.3972,550076.8042
186,선사현대아파트(전동 지하주차장),서울특별시 강동구 암사동 509번지,서울특별시 강동구 상암로 11 (암사동),공공용,공공시설,20657,25038,Y,2021-08-06,강동구청,3240000,127.125657,37.553444,211103.3631,550443.208
187,삼성광나루아파트(전동 지하주차장),서울특별시 강동구 암사동 508번지,서울특별시 강동구 상암로3길 77 (암사동),공공용,공공시설,3375,4090,Y,2021-08-06,강동구청,3240000,127.127233,37.554168,211242.5224,550523.6919
188,진로아파트(전동지하),서울특별시 강동구 명일동 47번지 12호,서울특별시 강동구 동남로73길 26 (명일동),공공용,공공시설,8887,10772,Y,2021-08-06,강동구청,3240000,127.15478,37.553233,213676.7814,550423.5425
189,이마트 명일점,서울특별시 강동구 명일동 47번지 7호,서울특별시 강동구 동남로75길 5 (명일동),공공용,공공시설,2506,3037,Y,2021-08-06,강동구청,3240000,127.156005,37.554007,213784.8742,550509.6984
190,양지학원,서울특별시 강동구 명일동 48번지 6호,서울특별시 강동구 동남로 885 (명일동),공공용,공공시설,932,1129,Y,2021-08-06,강동구청,3240000,127.155975,37.552655,213782.4635,550359.6602
191,한스빌딩,서울특별시 강동구 암사동 473번지 37호,서울특별시 강동구 암사길 51 (암사동),공공용,공공시설,383,464,Y,2021-08-06,강동구청,3240000,127.135022,37.552008,211931.1151,550284.9886
192,501타워빌딩(동양덱스빌),서울특별시 강동구 암사동 501번지 4호,서울특별시 강동구 상암로 41 (암사동),공공용,공공시설,520,630,Y,2021-08-06,강동구청,3240000,127.128194,37.550156,211328.0008,550078.5873
193,이안강동,서울특별시 강동구 성내동 25번지 1호,서울특별시 강동구 천호대로162길 34 (성내동),공공용,공공시설,12483,15130,Y,2021-08-06,강동구청,3240000,127.127949,37.535577,211308.5707,548460.404
194,씨제이나인파크,서울특별시 강동구 성내동 164번지 1호,서울특별시 강동구 천호대로 1078 (성내동),공공용,공공시설,10026,12152,Y,2021-08-06,강동구청,3240000,127.131265,37.535825,211601.6031,548488.3994
195,대우한강베네시티,서울특별시 강동구 천호동 425번지 5호,서울특별시 강동구 올림픽로 664 (천호동),공공용,공공시설,27500,33333,Y,2021-08-06,강동구청,3240000,127.124977,37.540557,211045.1956,549012.8046
196,GS강동자이아파트,서울특별시 강동구 길동 474번지,서울특별시 강동구 천호대로 1239 (길동 GS강동자이아파트),공공용,공공시설,32994,39992,Y,2021-08-06,강동구청,3240000,127.148277,37.537859,213104.8673,548716.3291
197,신성미소지움아파트(전동지하),서울특별시 강동구 둔촌동 134번지 10호,서울특별시 강동구 진황도로 212 (둔촌동),공공용,공공시설,3210,3890,Y,2021-08-06,강동구청,3240000,127.14333,37.527209,212669.3868,547533.6106
198,세양청마루아파트(전동지하),서울특별시 강동구 둔촌동 426번지,서울특별시 강동구 천호대로 1162 (둔촌동),공공용,공공시설,5106,6189,Y,2021-08-06,강동구청,3240000,127.140597,37.533262,212426.7944,548205.0922
199,광남캐스빌아파트(전동지하),서울특별시 강동구 둔촌동 435번지 7호,서울특별시 강동구 천호대로 1156-12 (둔촌동),공공용,공공시설,5449,6604,Y,2021-08-06,강동구청,3240000,127.139089,37.53318,212293.601,548195.762
200,둔촌신동아아파트(전동지하),서울특별시 강동구 둔촌동 555번지,서울특별시 강동구 양재대로96길 79 (둔촌동),공공용,공공시설,12698,15391,Y,2021-08-06,강동구청,3240000,127.141487,37.529043,212506.2157,547736.8943
201,암펠로스타워아파트(전동지하),서울특별시 강동구 둔촌동 556번지,서울특별시 강동구 명일로 110 (둔촌동),공공용,공공시설,4617,5596,Y,2021-08-06,강동구청,3240000,127.143168,37.528821,212654.7947,547712.5031
202,한솔솔파크아파트(전동지하),서울특별시 강동구 둔촌동 611번지,서울특별시 강동구 천호대로198길 36 (둔촌동),공공용,공공시설,4627,5608,Y,2021-08-06,강동구청,3240000,127.147908,37.533531,213072.966,548235.9513
203,한건브리앙,서울특별시 강동구 암사동 497번지 6호,서울특별시 강동구 암사1길 9 (암사동),공공용,공공시설,1204,1459,Y,2021-08-06,강동구청,3240000,127.130115,37.551179,211497.6042,550192.3625
204,대원아파트,서울특별시 강동구 암사동 461번지,서울특별시 강동구 고덕로 52 (암사동),공공용,공공시설,5459,6616,Y,2021-08-06,강동구청,3240000,127.130556,37.554463,211536.0937,550556.8027
205,중앙하이츠아파트,서울특별시 강동구 암사동 493번지 14호,서울특별시 강동구 올림픽로98가길 47 (암사동),공공용,공공시설,4397,5329,Y,2021-08-06,강동구청,3240000,127.131613,37.550909,211629.9995,550162.5544
206,효정하나플러스,서울특별시 강동구 암사동 672번지,서울특별시 강동구 구천면로47길 69-18 (암사동),공공용,공공시설,1988,2409,Y,2021-08-06,강동구청,3240000,127.134008,37.551276,211841.6031,550203.6038
207,동아하이빌아파트(지하주차장),서울특별시 강동구 천호동 217번지 132호,서울특별시 강동구 구천면로 278 (천호동),공공용,공공시설,12374,14998,Y,2021-08-06,강동구청,3240000,127.133885,37.544648,211831.782,549467.8698
208,천호1동 공영주차장,서울특별시 강동구 천호동 87번지 26호,서울특별시 강동구 구천면로42길 60 (천호동 천호동 노외주차장),공공용,공공시설,6598,7997,Y,2021-08-06,강동구청,3240000,127.13628,37.544988,212043.3624,549506.0063
209,동원베네스트아파트,서울특별시 강동구 암사동 670번지,서울특별시 강동구 고덕로 52-11 (암사동),공공용,공공시설,3126,3789,Y,2021-08-06,강동구청,3240000,127.131128,37.554088,211586.6412,550515.3467
210,일주빌딩,서울특별시 강동구 천호동 234번지 6호,서울특별시 강동구 구천면로 304 (천호동),공공용,공공시설,1460,1769,Y,2021-08-06,강동구청,3240000,127.134812,37.546727,211913.3373,549698.753
211,강일리버파크 3단지(전동 지하주차장),서울특별시 강동구 강일동 674번지,서울특별시 강동구 아리수로93길 40 (강일동),공공용,공공시설,30682,37190,Y,2021-08-06,강동구청,3240000,127.175108,37.565516,215470.4968,551790.0045
212,강일리버파크 4단지(전동 지하주차장),서울특별시 강동구 강일동 673번지,서울특별시 강동구 아리수로97길 19 (강일동),공공용,공공시설,5850,7091,Y,2021-08-06,강동구청,3240000,127.176789,37.566994,215618.6839,551954.3035
213,강일리버파크 6단지(전동 지하주차장),서울특별시 강동구 강일동 684번지,서울특별시 강동구 아리수로94길 19 (강일동),공공용,공공시설,14348,17392,Y,2021-08-06,강동구청,3240000,127.177266,37.562735,215661.7079,551481.7199
214,강일리버파크 9단지(전동 지하주차장),서울특별시 강동구 강일동 699번지,서울특별시 강동구 고덕로97길 29 (강일동),공공용,공공시설,24645,29873,Y,2021-08-06,강동구청,3240000,127.177835,37.558351,215712.8829,550995.2209
215,암사3동주민센터,서울특별시 강동구 암사동 414번지 19호,서울특별시 강동구 고덕로 137 (암사동),공공용,공공시설,1542,1869,Y,2021-08-06,강동구청,3240000,127.140783,37.554997,212439.6223,550617.4167
216,롯데캐슬(아)상가,서울특별시 강동구 암사동 414번지 18호,서울특별시 강동구 고덕로 133 (암사동),공공용,공공시설,6536,7922,Y,2021-08-06,강동구청,3240000,127.140349,37.555255,212401.3105,550646.0122
217,롯데캐슬(아)(전동 지하주차장),서울특별시 강동구 암사동 414번지 2호,서울특별시 강동구 고덕로 131 (암사동 강동롯데캐슬퍼스트아파트),공공용,공공시설,21200,25697,Y,2021-08-06,강동구청,3240000,127.14386,37.555168,212711.5142,550636.8074
218,현대홈타운아파트(전동 지하주차장),서울특별시 강동구 암사동 400번지,서울특별시 강동구 고덕로27길 36 (암사동 강동현대홈타운),공공용,공공시설,13545,16418,Y,2021-08-06,강동구청,3240000,127.138441,37.55689,212232.3723,550827.231
219,한강현대아파트(전동 지하주차장),서울특별시 강동구 암사동 442번지 1호,서울특별시 강동구 올림픽로104길 41 (암사동 한강현대아파트),공공용,공공시설,8040,9745,Y,2021-08-06,강동구청,3240000,127.131309,37.556009,211602.3723,550728.5307
220,한강포스파크아파트(전동 지하주차장),서울특별시 강동구 암사동 445번지,서울특별시 강동구 고덕로19길 30 (암사동 한강포스파크아파트),공공용,공공시설,2240,2715,Y,2021-08-06,강동구청,3240000,127.133822,37.556174,211824.4022,550747.2047
221,강일동복합청사,서울특별시 강동구 강일동 678번지,서울특별시 강동구 아리수로93길 9-14 (강일동),공공용,공공시설,1056,1280,Y,2021-08-06,강동구청,3240000,127.173913,37.565036,215364.9749,551736.5884
222,강일초등학교,서울특별시 강동구 강일동 685번지,서울특별시 강동구 아리수로98길 24 (강일동),공공용,공공시설,481,583,Y,2021-08-06,강동구청,3240000,127.177212,37.565257,215656.4003,551761.6047
223,온조대왕체육관,서울특별시 강동구 고덕동 296번지,서울특별시 강동구 고덕로 285 (고덕동),공공용,공공시설,2057,2493,Y,2021-08-06,강동구청,3240000,127.157457,37.55673,213912.6694,550812.081
224,강일리버파크1단지(전동 지하주차장),서울특별시 강동구 강일동 665번지,서울특별시 강동구 아리수로93가길 25 (강일동),공공용,공공시설,8251,10001,Y,2021-08-06,강동구청,3240000,127.172025,37.566868,215197.8003,551939.5544
225,강일리버파크2단지(전동 지하주차장),서울특별시 강동구 강일동 668번지,서울특별시 강동구 아리수로97길 68 (강일동),공공용,공공시설,13046,15813,Y,2021-08-06,강동구청,3240000,127.176657,37.568732,215606.633,552147.1916
226,강일리버파크5단지(전동 지하주차장),서울특별시 강동구 강일동 670번지,서울특별시 강동구 아리수로97길 20 (강일동),공공용,공공시설,21145,25630,Y,2021-08-06,강동구청,3240000,127.178142,37.568517,215737.8962,552123.5846
227,강일리버파크7단지(전동 지하주차장),서울특별시 강동구 강일동 686번지,서울특별시 강동구 아리수로98길 25 (강일동),공공용,공공시설,22015,26684,Y,2021-08-06,강동구청,3240000,127.178337,37.565277,215755.7971,551764.0014
228,강일리버파크8단지(전동 지하주차장),서울특별시 강동구 강일동 701번지,서울특별시 강동구 아리수로94길 72 (강일동),공공용,공공시설,12316,14928,Y,2021-08-06,강동구청,3240000,127.176269,37.560719,215574.0765,551257.7685
229,강일리버파크10단지(전동 지하주차장),서울특별시 강동구 강일동 695번지,서울특별시 강동구 고덕로97길 20 (강일동),공공용,공공시설,20369,24689,Y,2021-08-06,강동구청,3240000,127.179999,37.559204,215903.8878,551090.2579
230,명일1동 공영주차장,서울특별시 강동구 명일동 312번지 250호,서울특별시 강동구 구천면로 395 (명일동),공공용,공공시설,6436,7801,Y,2021-08-06,강동구청,3240000,127.14291,37.551039,212628.2951,550178.3861
231,동산빌딩,서울특별시 강동구 명일동 345번지 24호,서울특별시 강동구 양재대로 1584 (명일동),공공용,공공시설,556,673,Y,2021-08-06,강동구청,3240000,127.143635,37.547007,212693.0524,549731.0376
232,해공도서관,서울특별시 강동구 천호동 360번지,서울특별시 강동구 올림픽로 702 (천호동),공공용,공공시설,601,728,Y,2021-08-06,강동구청,3240000,127.125538,37.543948,211094.2819,549389.174
233,쌍용플래티넘리버,서울특별시 강동구 천호동 432번지 10호,서울특별시 강동구 올림픽로 659 (천호동),공공용,공공시설,5872,7117,Y,2021-08-06,강동구청,3240000,127.123565,37.540327,210920.3958,548987.0635
234,대동피렌체리버,서울특별시 강동구 천호동 442번지 34호,서울특별시 강동구 올림픽로 667 (천호동),공공용,공공시설,1830,2218,Y,2021-08-06,강동구청,3240000,127.123956,37.541132,210954.869,549076.5264
235,홈플러스,서울특별시 강동구 천호동 42번지,서울특별시 강동구 양재대로 1571 (천호동),공공용,공공시설,26258,31827,Y,2021-08-06,강동구청,3240000,127.142258,37.545718,212571.5657,549587.7358
236,강동그린타워,서울특별시 강동구 길동 459번지 3호,서울특별시 강동구 천호대로 1139 (길동 강동그린타워),공공용,공공시설,6736,8164,Y,2021-08-06,강동구청,3240000,127.13812,37.534596,212207.6531,548352.7733
237,둔촌푸르지오아파트(전동지하),서울특별시 강동구 둔촌동 630번지,서울특별시 강동구 명일로 172 (둔촌동),공공용,공공시설,3893,4718,Y,2021-08-06,강동구청,3240000,127.145072,37.534142,212822.2255,548303.2945
238,한화오벨리스크,서울특별시 강동구 명일동 48번지 17호,서울특별시 강동구 동남로 877 (명일동),공공용,공공시설,3195,3872,Y,2021-08-06,강동구청,3240000,127.155802,37.552014,213767.2593,550288.4048
239,강동역SK허브,서울특별시 강동구 길동 445번지 1호,서울특별시 강동구 천호대로 1107 (길동 강동역에스케이허브),공공용,공공시설,5931,7189,Y,2021-08-06,강동구청,3240000,127.134844,37.53558,211918.0012,548461.604
240,암사1동공영주차장,서울특별시 강동구 암사동 59번지 2호,서울특별시 강동구 고덕로28길 36 (암사동),공공용,공공시설,3791,4595,Y,2021-08-06,강동구청,3240000,127.137999,37.552706,212193.9996,550362.7903
241,천호3동 공영주차장,서울특별시 강동구 천호동 167번지 195호,서울특별시 강동구 진황도로29길 34 (천호동 천호동공영주차장),공공용,공공시설,6460,7830,Y,2021-08-06,강동구청,3240000,127.13327,37.539129,211778.2832,548855.2537
242,안말어린이공원 공영주차장,서울특별시 강동구 성내동 512번지,서울특별시 강동구 풍성로45길 11 (성내동 안말어린이공원 공영주차장),공공용,공공시설,5348,6482,Y,2021-08-06,강동구청,3240000,127.129921,37.531256,211483.5432,547981.0561
243,명성교회 월드글로리아센터,서울특별시 강동구 명일동 340번지 1호,서울특별시 강동구 양재대로134길 52 (명일동 명성교회문화집회시설),공공용,공공시설,6998,8482,Y,2021-08-06,강동구청,3240000,127.146426,37.547397,212939.6082,549774.6601
244,나비빌딩,서울특별시 강동구 천호동 453번지 19호,서울특별시 강동구 천호대로157길 14 (천호동),공공용,공공시설,5992,7263,Y,2021-08-06,강동구청,3240000,127.127294,37.538229,211250.3076,548754.6385
245,성내동삼성아파트(전동지하),서울특별시 강동구 성내동 590번지,서울특별시 강동구 풍성로 128 (성내동 성내동삼성아파트),공공용,공공시설,34241,41504,Y,2021-08-06,강동구청,3240000,127.125976,37.529947,211135.0623,547835.3443
246,암사2동 청사(지하주차장),서울특별시 강동구 암사동 503번지 8호,서울특별시 강동구 상암로3길 28 (암사동 암사2동주민센터),공공용,공공시설,361.65,438,Y,2021-08-06,강동구청,3240000,127.127273,37.551708,211246.4265,550250.7125
247,고덕리엔파크 1단지(전동 지하주차장),서울특별시 강동구 강일동 707번지,서울특별시 강동구 상일로 152 (강일동),공공용,공공시설,23226,28153,Y,2021-08-06,강동구청,3240000,127.171359,37.561636,215140.0378,551358.8068
248,고덕리엔파크 2단지(전동 지하주차장),서울특별시 강동구 강일동 717번지,서울특별시 강동구 고덕로 427 (강일동),공공용,공공시설,19477,23608,Y,2021-08-06,강동구청,3240000,127.173178,37.558796,215301.3236,551043.8524
249,고덕리엔파크 3단지(전동 지하주차장),서울특별시 강동구 강일동 490번지,서울특별시 강동구 상일로 74 (강일동),공공용,공공시설,77077,93427,Y,2021-08-06,강동구청,3240000,127.174786,37.551368,215444.8978,550219.7338
250,삼성엔지니어링,서울특별시 강동구 상일동 500번지,서울특별시 강동구 상일로6길 26 (상일동),공공용,공공시설,85439.57,103564,Y,2021-08-06,강동구청,3240000,127.175325,37.548818,215493.1074,549936.7951
251,강동경희대학교 병원,서울특별시 강동구 상일동 149번지,서울특별시 강동구 동남로 892 (상일동 강동경희대학교병원),공공용,공공시설,17913.98,21714,Y,2021-08-06,강동구청,3240000,127.156965,37.553167,213869.8661,550416.5929
252,서희스타힐스 빌딩,서울특별시 강동구 명일동 48번지 7호,서울특별시 강동구 동남로 881 (명일동),공공용,공공시설,3217,3899,Y,2021-08-06,강동구청,3240000,127.155775,37.552294,213764.8927,550319.4699
253,고덕1동 주민센터,서울특별시 강동구 고덕동 494번지 5호,서울특별시 강동구 양재대로156길 123 (고덕동 고덕제1동주민센터),공공용,공공시설,278,336,Y,2021-08-06,강동구청,3240000,127.151509,37.557282,213386.9873,550872.5016
254,고덕아이파크(전동 지하주차장),서울특별시 강동구 고덕동 499번지,서울특별시 강동구 동남로79길 26 (고덕동 고덕아이파크),공공용,공공시설,76336,92528,Y,2021-08-06,강동구청,3240000,127.15374,37.559181,213583.7602,551083.6094
255,한솔솔파크 더리버 아파트(전동 지하주차장),서울특별시 강동구 암사동 518번지,서울특별시 강동구 선사로 120 (암사동 한솔 솔파크 더 리버),공공용,공공시설,10789.52,13078,Y,2021-08-06,강동구청,3240000,127.123873,37.550232,210946.1412,550086.5105
256,래미안힐스테이트 고덕(지하주차장),서울특별시 강동구 고덕동 688번지,서울특별시 강동구 아리수로50길 50 (고덕동 래미안힐스테이트고덕),공공용,공공시설,261492,316960,Y,2021-08-06,강동구청,3240000,127.148601,37.557685,213129.9983,550916.7697
257,강일리버파크11단지,서울특별시 강동구 강일동 689번지,서울특별시 강동구 고덕로97길 100 (강일동 강일리버파크11단지),공공용,공공시설,6905.32,8370,Y,2021-08-06,강동구청,3240000,127.180097,37.562647,215911.8234,551472.3762
258,중앙보훈병원역,서울특별시 강동구 둔촌동 8번지 1호,서울특별시 강동구 동남로 지하 625 (둔촌동 중앙보훈병원역),공공용,공공시설,9105,11036,Y,2021-08-06,강동구청,3240000,127.148544,37.528896,213130.0008,547721.604
579,삼익아파트,서울특별시 금천구 독산동 956,서울특별시 금천구 남부순환로120길 22,공공용,주차장,5554,6732,Y,2021-09-06,금천구청,3170000,126.900721,37.478306,191218.6612,542100.9741
259,둔촌오륜역,서울특별시 강동구 둔촌동 227번지 7호,서울특별시 강동구 강동대로 지하 303 (둔촌동 둔촌오륜역),공공용,공공시설,7505,9096,Y,2021-08-06,강동구청,3240000,127.13843,37.519424,212237.5305,546668.957
547,덕산아파트,서울특별시 금천구 가산동 148-1,서울특별시 금천구 시흥대로151길 45,공공용,주차장,495,600,Y,2021-09-06,금천구청,3170000,126.896072,37.47671,190807.2479,541924.272
548,두산아파트,서울특별시 금천구 가산동 769,서울특별시 금천구 가산로 99,공공용,주차장,18665,22624,Y,2021-09-06,금천구청,3170000,126.891289,37.476157,190384.1597,541863.394
549,가산동주민센터,서울특별시 금천구 가산동 144-3,서울특별시 금천구 가산로 129,공공용,주차장,330,400,Y,2021-09-06,금천구청,3170000,126.891789,37.476852,190428.4221,541940.5044
550,가산디지털단지역(서울도시지하철공사),서울특별시 금천구 가산동 468-4,서울특별시 금천구 벚꽃로 309,공공용,역사,12552,15214,Y,2021-09-06,금천구청,3170000,126.88256,37.481596,189612.7215,542467.9746
551,엘지텔레콤,서울특별시 금천구독산동 145-6,서울특별시 금천구 시흥대로 479,공공용,주차장,1980,2400,Y,2021-09-06,금천구청,3170000,126.898217,37.476338,190996.9172,541882.8444
552,청광플러스 원아파트,서울특별시 금천구 독산동 1139,서울특별시 금천구 두산로11길 22,공공용,주차장,2756,3340,Y,2021-09-06,금천구청,3170000,126.894111,37.471293,190633.0979,541323.2542
553,독산1동주민센터,서울특별시 금천구 독산동 289-5,서울특별시 금천구 시흥대로123길 11,공공용,주차장,231,280,Y,2021-09-06,금천구청,3170000,126.897042,37.470219,190892.3127,541203.8149
554,진도2차아파트,서울특별시 금천구 독산동 1133,서울특별시 금천구 두산로 36,공공용,주차장,3003,3640,Y,2021-09-06,금천구청,3170000,126.891916,37.470244,190438.8315,541207.0443
555,홈플러스 테스코㈜ 금천점(독산),서울특별시 금천구 독산동 291-7,서울특별시 금천구 시흥대로 391,공공용,주차장,15757,19099,Y,2021-09-06,금천구청,3170000,126.896884,37.468671,190878.139,541032.0486
556,유창빌딩,서울특별시 금천구 독산동 293-5,서울특별시 금천구 범안로 1209,공공용,주차장,1551,1880,Y,2021-09-06,금천구청,3170000,126.896285,37.466826,190824.9157,540827.3445
557,현대아파트,서울특별시 금천구 독산동 293-10,서울특별시 금천구 범안로17길 12,공공용,주차장,1617,1960,Y,2021-09-06,금천구청,3170000,126.894548,37.467153,190671.2668,540863.7544
558,라이프아파트,서울특별시 금천구 독산동 1131,서울특별시 금천구 벚꽃로 60,공공용,주차장,330,400,Y,2021-09-06,금천구청,3170000,126.892166,37.461099,190459.7759,540192.1246
559,이랜드해가든아파트,서울특별시 금천구 독산동 1143,서울특별시 금천구 벚꽃로6길 3,공공용,주차장,7930,9612,Y,2021-09-06,금천구청,3170000,126.892464,37.46061,190486.0518,540137.7944
560,금천현대아파트,서울특별시 금천구 독산동 711-2,서울특별시 금천구 벚꽃로 73,공공용,주차장,21291,25808,Y,2021-09-06,금천구청,3170000,126.890423,37.462909,190305.8393,540393.1146
561,한신아파트,서울특별시 금천구 독산동 1093-4,서울특별시 금천구 한내로 62,공공용,주차장,11972,14512,Y,2021-09-06,금천구청,3170000,126.888878,37.455391,190168.126,539558.894
562,위너스골프연습장,서울특별시 금천구 독산동 1066-2,서울특별시 금천구 시흥대로 296,공공용,기계실,491,595,Y,2021-09-06,금천구청,3170000,126.899288,37.459684,191089.7274,540034.3736
563,무송빌딩,서울특별시 금천구 독산동 1066-1,서울특별시 금천구 시흥대로 302,공공용,주차장,165,200,Y,2021-09-06,금천구청,3170000,126.898652,37.46065,191033.5828,540141.6679
564,호정타워아파트,서울특별시 금천구 독산동 1069,서울특별시 금천구 시흥대로88길 21,공공용,주차장,2970,3600,Y,2021-09-06,금천구청,3170000,126.900284,37.461188,191177.9612,540201.2001
565,대우그린빌라,서울특별시 금천구 독산동 1066-19,서울특별시 금천구 시흥대로90길 10,공공용,주차장,611,740,Y,2021-09-06,금천구청,3170000,126.898965,37.460928,191061.2986,540172.4146
566,유당빌딩,서울특별시 금천구 독산동 1054,서울특별시 금천구 시흥대로 350,공공용,주차장,363,440,Y,2021-09-06,금천구청,3170000,126.898031,37.464582,190979.0876,540578.0912
567,림스빌딩(이영림치과),서울특별시 금천구 독산동 1031-9,서울특별시 금천구 시흥대로 362,공공용,주차장,463,560,Y,2021-09-06,금천구청,3170000,126.898034,37.465844,190979.4692,540718.1126
568,독산2동주민센터,서울특별시 금천구 독산동 1035-13,서울특별시 금천구 범안로 1240-7,공공용,주차장,2923,2411,Y,2021-09-06,금천구청,3170000,126.899739,37.466112,191130.3615,540747.7272
569,창영빌딩,서울특별시 금천구 독산동 1038,서울특별시 금천구 독산로 218,공공용,주차장,396,480,Y,2021-09-06,금천구청,3170000,126.902006,37.466358,191330.941,540774.8521
570,덕왕빌딩,서울특별시 금천구 독산동 1041-33,서울특별시 금천구 독산로64길 15,공공용,주차장,330,400,Y,2021-09-06,금천구청,3170000,126.903435,37.46523,191457.2116,540649.4545
571,동양드림아파트,서울특별시 금천구 독산동 378-77,서울특별시 금천구 독산로58나길 56,공공용,주차장,362,438,Y,2021-09-06,금천구청,3170000,126.906685,37.465521,191744.8215,540681.4838
572,목화2차아파트,서울특별시 금천구 독산동 1132,서울특별시 금천구 문성로3길 8,공공용,주차장,990,1200,Y,2021-09-06,금천구청,3170000,126.904548,37.4767,191557.0181,541922.4239
573,목화빌라,서울특별시 금천구 독산동 885-5,서울특별시 금천구 문성로3길 3,공공용,주차장,673,816,Y,2021-09-06,금천구청,3170000,126.904551,37.477077,191557.2817,541964.2812
574,목화1차아파트,서울특별시 금천구 독산동 961-13,서울특별시 금천구 문성로1길 7,공공용,주차장,1231,1492,Y,2021-09-06,금천구청,3170000,126.904171,37.476772,191523.6529,541930.3945
575,장미아파트,서울특별시 금천구 독산동 889-26,서울특별시 금천구 문성로 27,공공용,주차장,577,700,Y,2021-09-06,금천구청,3170000,126.906612,37.476806,191739.6055,541934.0254
576,독산고등학교,서울특별시 금천구 독산동 907-34,서울특별시 금천구 문성로 64,공공용,주차장,544,660,Y,2021-09-06,금천구청,3170000,126.91094,37.476219,192122.2969,541868.4445
577,크로바볼링장,서울특별시 금천구 독산동 983-13,서울특별시 금천구 시흥대로 440,공공용,주차장,1254,1520,Y,2021-09-06,금천구청,3170000,126.898891,37.472898,191056.1779,541500.9518
578,신한은행,서울특별시 금천구 독산동 983-16,서울특별시 금천구 시흥대로 446,공공용,주차장,330,400,Y,2021-09-06,금천구청,3170000,126.898829,37.473309,191050.6982,541546.531
580,금천세무서,서울특별시 금천구 독산동 953-9,서울특별시 금천구 시흥대로152길 11-21,공공용,주차장,396,480,Y,2021-09-06,금천구청,3170000,126.8998,37.47802,191137.1463,542069.3038
581,신도브래뉴 아파트,서울특별시 금천구 독산동 955,서울특별시 금천구 시흥대로152길 25,공공용,주차장,11000,13333,Y,2021-09-06,금천구청,3170000,126.899959,37.477586,191151.2208,542021.1239
582,혜전빌딩,서울특별시 금천구 독산동 954-4,서울특별시 금천구 시흥대로 488,공공용,주차장,412,500,Y,2021-09-06,금천구청,3170000,126.899214,37.477073,191085.2632,541964.2747
583,노보텔앰배서더,서울특별시 금천구 독산동 1030-1,서울특별시 금천구 시흥대로 378,공공용,주차장,3415,4139,Y,2021-09-06,금천구청,3170000,126.898375,37.467488,191009.8683,540900.5738
584,대덕트윈빌,서울특별시 금천구 독산동 1028,서울특별시 금천구 시흥대로112길 6,공공용,주차장,2675,3242,Y,2021-09-06,금천구청,3170000,126.89908,37.467317,191072.2503,540881.5247
585,금천우체국,서울특별시 금천구 독산동 286-9,서울특별시 금천구 시흥대로 410,공공용,주차장,462,560,Y,2021-09-06,금천구청,3170000,126.898524,37.470146,191023.4026,541195.5339
586,주는 교회,서울특별시 금천구 독산동 1019-23,서울특별시 금천구 독산로 237,공공용,주차장,194,235,Y,2021-09-06,금천구청,3170000,126.901778,37.467987,191310.9683,540955.6356
587,독산4동주민센터,서울특별시 금천구 독산동 1022,서울특별시 금천구 독산로 232,공공용,주차장,300,363,Y,2021-09-06,금천구청,3170000,126.902146,37.467554,191343.4728,540907.4969
588,동심아파트,서울특별시 금천구 독산동 184-4,서울특별시 금천구 독산로78다길 12,공공용,주차장,1045,1266,Y,2021-09-06,금천구청,3170000,126.904875,37.469084,191585.0708,541077.1354
589,동아아파트,서울특별시 금천구 독산동 183-1,서울특별시 금천구 독산로78다길 52,공공용,주차장,4762,5772,Y,2021-09-06,금천구청,3170000,126.906366,37.46992,191717.0509,541169.7747
590,아셈그린힐,서울특별시 금천구 독산동 184-3,서울특별시 금천구 독산로78다길 22,공공용,주차장,1083,1312,Y,2021-09-06,금천구청,3170000,126.905172,37.469307,191611.3423,541101.8612
591,금천문화체육센터,서울특별시 금천구 독산동 371-2,서울특별시 금천구 독산로54길 188,공공용,주차장,4243,5143,Y,2021-09-06,금천구청,3170000,126.907341,37.470069,191803.2723,541186.2142
592,금천구청,서울특별시 금천구 시흥동 1020,서울특별시 금천구 시흥대로73길 70,공공용,주차장,10190,12351,Y,2021-09-06,금천구청,3170000,126.896037,37.457066,190801.7544,539744.0641
593,시흥베르빌아파트,서울특별시 금천구 시흥동 1015,서울특별시 금천구 시흥대로77길 23,공공용,주차장,2209,2677,Y,2021-09-06,금천구청,3170000,126.897679,37.457606,190947.1415,539803.893
594,새한벤쳐월드,서울특별시 금천구 시흥동 113-15,서울특별시 금천구 시흥대로 281,공공용,지하주차장,3908,4736,Y,2021-09-06,금천구청,3170000,126.898163,37.458564,190990.0344,539910.1982
595,산호시티빌아파트,서울특별시 금천구 시흥동 999-1,서울특별시 금천구 시흥대로 251,공공용,지하주차장,4278,5185,Y,2021-09-06,금천구청,3170000,126.899577,37.456045,191114.8301,539630.4462
596,꿈나래어린이집,서울특별시 금천구 시흥동 118-90,서울특별시 금천구 금하로3길 32,공공용,지하공간,125,152,Y,2021-09-06,금천구청,3170000,126.897366,37.454929,190919.0984,539506.7542
597,목련아파트,서울특별시 금천구 시흥동 1009,서울특별시 금천구 금하로3길 26,공공용,지하공간,1373,1664,Y,2021-09-06,금천구청,3170000,126.897439,37.454335,190925.4857,539440.8646
598,영광아파트,서울특별시 금천구 시흥동 992-12,서울특별시 금천구 시흥대로57길 17,공공용,지하공간,528,640,Y,2021-09-06,금천구청,3170000,126.90034,37.453005,191182.0168,539292.9542
599,건영아파트,서울특별시 금천구 시흥동 992-2,서울특별시 금천구 시흥대로59길 35,공공용,지하공간,1142,1384,Y,2021-09-06,금천구청,3170000,126.898618,37.452946,191029.6545,539286.5574
600,성지아파트,서울특별시 금천구 시흥동 산173-8,서울특별시 금천구 시흥대로51길 55,공공용,지하공간,1821,2208,Y,2021-09-06,금천구청,3170000,126.89706,37.451344,190891.58,539108.9348
601,럭키아파트,서울특별시 금천구 시흥동 1002-1,서울특별시 금천구 시흥대로47길 43,공공용,지하공간,4600,5576,Y,2021-09-06,금천구청,3170000,126.898955,37.450655,191059.2,539032.3238
602,스카이 아파트,서울특별시 금천구 시흥동 989-9,서울특별시 금천구 시흥대로47길 35,공공용,지하주차장,518,628,Y,2021-09-06,금천구청,3170000,126.900239,37.449537,191172.6639,538908.1013
603,시흥빌딩,서울특별시 금천구 시흥동 986-4,서울특별시 금천구 시흥대로 155,공공용,지하주차장,900,1090,Y,2021-09-06,금천구청,3170000,126.902693,37.447885,191389.59,538724.4942
